%time,field.header.seq,field.header.stamp,field.header.frame_id,field.status.status,field.status.service,field.latitude,field.longitude,field.altitude,field.position_covariance0,field.position_covariance1,field.position_covariance2,field.position_covariance3,field.position_covariance4,field.position_covariance5,field.position_covariance6,field.position_covariance7,field.position_covariance8,field.position_covariance_type
1629387396220257305,125937,1629387396200000048,gpsRover,1,3,33.9111334555,-84.5300074127,300.907,0.237169,0.0,0.0,0.0,0.173056,0.0,0.0,0.0,1.390041,2
1629387396269493044,125938,1629387396250000000,gpsRover,1,3,33.9111334522,-84.5300073928,300.906,0.237169,0.0,0.0,0.0,0.173056,0.0,0.0,0.0,1.390041,2
1629387396320038663,125939,1629387396299999952,gpsRover,1,3,33.9111334453,-84.5300073697,300.913,0.237169,0.0,0.0,0.0,0.173056,0.0,0.0,0.0,1.390041,2
1629387396370133116,125940,1629387396349999905,gpsRover,1,3,33.9111334487,-84.5300073432,300.902,0.237169,0.0,0.0,0.0,0.173056,0.0,0.0,0.0,1.390041,2
1629387396420330825,125941,1629387396400000095,gpsRover,1,3,33.9111334132,-84.5300073348,300.908,0.237169,0.0,0.0,0.0,0.173056,0.0,0.0,0.0,1.390041,2
1629387396469925214,125942,1629387396450000048,gpsRover,1,3,33.9111334183,-84.5300073453,300.907,0.237169,0.0,0.0,0.0,0.173056,0.0,0.0,0.0,1.390041,2
1629387396523875172,125943,1629387396500000000,gpsRover,1,3,33.9111334092,-84.5300073698,300.906,0.237169,0.0,0.0,0.0,0.173056,0.0,0.0,0.0,1.390041,2
1629387396569980293,125944,1629387396549999952,gpsRover,1,3,33.9111334163,-84.5300073578,300.907,0.237169,0.0,0.0,0.0,0.173056,0.0,0.0,0.0,1.390041,2
1629387396619082275,125945,1629387396599999905,gpsRover,1,3,33.911133429,-84.5300073478,300.897,0.237169,0.0,0.0,0.0,0.173056,0.0,0.0,0.0,1.390041,2
1629387396670163024,125946,1629387396650000095,gpsRover,1,3,33.9111334305,-84.5300073525,300.902,0.237169,0.0,0.0,0.0,0.173056,0.0,0.0,0.0,1.390041,2
1629387396720050806,125947,1629387396700000048,gpsRover,1,3,33.9111334245,-84.5300073638,300.903,0.237169,0.0,0.0,0.0,0.173056,0.0,0.0,0.0,1.390041,2
1629387396768983650,125948,1629387396750000000,gpsRover,1,3,33.9111334237,-84.5300073532,300.905,0.237169,0.0,0.0,0.0,0.173056,0.0,0.0,0.0,1.390041,2
1629387396819830324,125949,1629387396799999952,gpsRover,1,3,33.9111334133,-84.5300073517,300.907,0.237169,0.0,0.0,0.0,0.173056,0.0,0.0,0.0,1.390041,2
1629387396869771106,125950,1629387396849999905,gpsRover,1,3,33.9111334165,-84.5300073587,300.903,0.237169,0.0,0.0,0.0,0.173056,0.0,0.0,0.0,1.390041,2
1629387396919784997,125951,1629387396900000095,gpsRover,1,3,33.9111334152,-84.5300073548,300.9,0.237169,0.0,0.0,0.0,0.173056,0.0,0.0,0.0,1.390041,2
1629387396969708558,125952,1629387396950000048,gpsRover,1,3,33.9111334018,-84.5300073348,300.911,0.237169,0.0,0.0,0.0,0.173056,0.0,0.0,0.0,1.390041,2
1629387397020588330,125953,1629387397000000000,gpsRover,1,3,33.9111334042,-84.5300073373,300.9,0.237169,0.0,0.0,0.0,0.173056,0.0,0.0,0.0,1.390041,2
1629387397089517780,125954,1629387397049999952,gpsRover,1,3,33.9111333873,-84.5300073557,300.911,0.238144,0.0,0.0,0.0,0.174724,0.0,0.0,0.0,1.397124,2
1629387397120631079,125955,1629387397099999905,gpsRover,1,3,33.9111333805,-84.5300073442,300.915,0.238144,0.0,0.0,0.0,0.174724,0.0,0.0,0.0,1.397124,2
1629387397170561767,125956,1629387397150000095,gpsRover,1,3,33.9111333785,-84.5300073565,300.911,0.238144,0.0,0.0,0.0,0.174724,0.0,0.0,0.0,1.397124,2
1629387397219563037,125957,1629387397200000048,gpsRover,1,3,33.9111333803,-84.5300073513,300.914,0.238144,0.0,0.0,0.0,0.174724,0.0,0.0,0.0,1.397124,2
1629387397270582385,125958,1629387397250000000,gpsRover,1,3,33.911133382,-84.5300073317,300.914,0.238144,0.0,0.0,0.0,0.174724,0.0,0.0,0.0,1.397124,2
1629387397320416590,125959,1629387397299999952,gpsRover,1,3,33.9111333653,-84.530007332,300.92,0.238144,0.0,0.0,0.0,0.174724,0.0,0.0,0.0,1.397124,2
1629387397369622563,125960,1629387397349999905,gpsRover,1,3,33.9111333548,-84.5300073363,300.916,0.238144,0.0,0.0,0.0,0.174724,0.0,0.0,0.0,1.397124,2
1629387397420362918,125961,1629387397400000095,gpsRover,1,3,33.9111333315,-84.5300073347,300.919,0.238144,0.0,0.0,0.0,0.174724,0.0,0.0,0.0,1.397124,2
1629387397469373308,125962,1629387397450000048,gpsRover,1,3,33.9111333593,-84.5300073268,300.917,0.238144,0.0,0.0,0.0,0.174724,0.0,0.0,0.0,1.397124,2
1629387397524286526,125963,1629387397500000000,gpsRover,1,3,33.9111333557,-84.5300073355,300.919,0.238144,0.0,0.0,0.0,0.174724,0.0,0.0,0.0,1.397124,2
1629387397570388245,125964,1629387397549999952,gpsRover,1,3,33.9111333347,-84.5300073312,300.917,0.238144,0.0,0.0,0.0,0.174724,0.0,0.0,0.0,1.397124,2
1629387397619386383,125965,1629387397599999905,gpsRover,1,3,33.9111333185,-84.5300073347,300.92,0.238144,0.0,0.0,0.0,0.174724,0.0,0.0,0.0,1.397124,2
1629387397669494601,125966,1629387397650000095,gpsRover,1,3,33.9111333032,-84.5300073117,300.924,0.238144,0.0,0.0,0.0,0.174724,0.0,0.0,0.0,1.397124,2
1629387397719464020,125967,1629387397700000048,gpsRover,1,3,33.9111332867,-84.530007289,300.923,0.238144,0.0,0.0,0.0,0.174724,0.0,0.0,0.0,1.397124,2
1629387397770396042,125968,1629387397750000000,gpsRover,1,3,33.9111332573,-84.5300072868,300.929,0.238144,0.0,0.0,0.0,0.174724,0.0,0.0,0.0,1.397124,2
1629387397819358326,125969,1629387397799999952,gpsRover,1,3,33.911133253,-84.5300072833,300.924,0.238144,0.0,0.0,0.0,0.174724,0.0,0.0,0.0,1.397124,2
1629387397869186808,125970,1629387397849999905,gpsRover,1,3,33.9111332447,-84.5300072915,300.923,0.238144,0.0,0.0,0.0,0.174724,0.0,0.0,0.0,1.397124,2
1629387397920248324,125971,1629387397900000095,gpsRover,1,3,33.9111332565,-84.5300073023,300.928,0.238144,0.0,0.0,0.0,0.174724,0.0,0.0,0.0,1.397124,2
1629387397969160889,125972,1629387397950000048,gpsRover,1,3,33.9111332232,-84.5300073053,300.93,0.238144,0.0,0.0,0.0,0.174724,0.0,0.0,0.0,1.397124,2
1629387398021526070,125973,1629387398000000000,gpsRover,1,3,33.9111331878,-84.5300072928,300.932,0.238144,0.0,0.0,0.0,0.174724,0.0,0.0,0.0,1.397124,2
1629387398090018922,125974,1629387398049999952,gpsRover,1,3,33.9111331767,-84.5300073012,300.934,0.2401,0.0,0.0,0.0,0.175561,0.0,0.0,0.0,1.404225,2
1629387398121222923,125975,1629387398099999905,gpsRover,1,3,33.9111331967,-84.5300072957,300.934,0.2401,0.0,0.0,0.0,0.175561,0.0,0.0,0.0,1.404225,2
1629387398170242869,125976,1629387398150000095,gpsRover,1,3,33.911133206,-84.53000727,300.932,0.2401,0.0,0.0,0.0,0.175561,0.0,0.0,0.0,1.404225,2
1629387398220051321,125977,1629387398200000048,gpsRover,1,3,33.9111331763,-84.5300072753,300.937,0.2401,0.0,0.0,0.0,0.175561,0.0,0.0,0.0,1.404225,2
1629387398269062283,125978,1629387398250000000,gpsRover,1,3,33.911133181,-84.5300072935,300.934,0.2401,0.0,0.0,0.0,0.175561,0.0,0.0,0.0,1.404225,2
1629387398319992185,125979,1629387398299999952,gpsRover,1,3,33.9111331725,-84.5300072822,300.928,0.2401,0.0,0.0,0.0,0.175561,0.0,0.0,0.0,1.404225,2
1629387398369938916,125980,1629387398349999905,gpsRover,1,3,33.9111331482,-84.5300072805,300.942,0.2401,0.0,0.0,0.0,0.175561,0.0,0.0,0.0,1.404225,2
1629387398419880377,125981,1629387398400000095,gpsRover,1,3,33.9111331347,-84.5300072825,300.942,0.2401,0.0,0.0,0.0,0.175561,0.0,0.0,0.0,1.404225,2
1629387398470671327,125982,1629387398450000048,gpsRover,1,3,33.9111331323,-84.530007301,300.942,0.2401,0.0,0.0,0.0,0.175561,0.0,0.0,0.0,1.404225,2
1629387398525088804,125983,1629387398500000000,gpsRover,1,3,33.9111331377,-84.5300073022,300.938,0.2401,0.0,0.0,0.0,0.175561,0.0,0.0,0.0,1.404225,2
1629387398570733619,125984,1629387398549999952,gpsRover,1,3,33.9111331247,-84.5300072765,300.941,0.2401,0.0,0.0,0.0,0.175561,0.0,0.0,0.0,1.404225,2
1629387398620135399,125985,1629387398599999905,gpsRover,1,3,33.911133086,-84.5300072975,300.948,0.2401,0.0,0.0,0.0,0.175561,0.0,0.0,0.0,1.404225,2
1629387398669614285,125986,1629387398650000095,gpsRover,1,3,33.9111330878,-84.5300073125,300.94,0.2401,0.0,0.0,0.0,0.175561,0.0,0.0,0.0,1.404225,2
1629387398720005477,125987,1629387398700000048,gpsRover,1,3,33.9111330963,-84.5300072863,300.947,0.2401,0.0,0.0,0.0,0.175561,0.0,0.0,0.0,1.404225,2
1629387398769633103,125988,1629387398750000000,gpsRover,1,3,33.9111330863,-84.5300073027,300.943,0.2401,0.0,0.0,0.0,0.175561,0.0,0.0,0.0,1.404225,2
1629387398819580750,125989,1629387398799999952,gpsRover,1,3,33.9111330792,-84.5300073002,300.946,0.2401,0.0,0.0,0.0,0.175561,0.0,0.0,0.0,1.404225,2
1629387398869644949,125990,1629387398849999905,gpsRover,1,3,33.9111330562,-84.5300072922,300.95,0.2401,0.0,0.0,0.0,0.175561,0.0,0.0,0.0,1.404225,2
1629387398919394844,125991,1629387398900000095,gpsRover,1,3,33.9111330427,-84.5300073048,300.941,0.2401,0.0,0.0,0.0,0.175561,0.0,0.0,0.0,1.404225,2
1629387398970387099,125992,1629387398950000048,gpsRover,1,3,33.9111330403,-84.5300073007,300.951,0.2401,0.0,0.0,0.0,0.175561,0.0,0.0,0.0,1.404225,2
1629387399020808135,125993,1629387399000000000,gpsRover,1,3,33.9111330237,-84.530007281,300.958,0.2401,0.0,0.0,0.0,0.175561,0.0,0.0,0.0,1.404225,2
1629387399089433298,125994,1629387399049999952,gpsRover,1,3,33.9111330065,-84.5300072853,300.957,0.312481,0.0,0.0,0.0,0.231361,0.0,0.0,0.0,1.798281,2
1629387399120508394,125995,1629387399099999905,gpsRover,1,3,33.9111329872,-84.5300072898,300.959,0.312481,0.0,0.0,0.0,0.231361,0.0,0.0,0.0,1.798281,2
1629387399170763143,125996,1629387399150000095,gpsRover,1,3,33.9111329818,-84.5300072628,300.954,0.312481,0.0,0.0,0.0,0.231361,0.0,0.0,0.0,1.798281,2
1629387399219509755,125997,1629387399200000048,gpsRover,1,3,33.9111329673,-84.5300072405,300.965,0.312481,0.0,0.0,0.0,0.231361,0.0,0.0,0.0,1.798281,2
1629387399269612222,125998,1629387399250000000,gpsRover,1,3,33.9111329468,-84.5300072472,300.97,0.312481,0.0,0.0,0.0,0.231361,0.0,0.0,0.0,1.798281,2
1629387399320342771,125999,1629387399299999952,gpsRover,1,3,33.9111329375,-84.530007261,300.971,0.312481,0.0,0.0,0.0,0.231361,0.0,0.0,0.0,1.798281,2
1629387399369412068,126000,1629387399349999905,gpsRover,1,3,33.9111329343,-84.5300072312,300.968,0.312481,0.0,0.0,0.0,0.231361,0.0,0.0,0.0,1.798281,2
1629387399420190900,126001,1629387399400000095,gpsRover,1,3,33.9111329357,-84.530007215,300.979,0.312481,0.0,0.0,0.0,0.231361,0.0,0.0,0.0,1.798281,2
1629387399469193416,126002,1629387399450000048,gpsRover,1,3,33.911132922,-84.5300072543,300.974,0.312481,0.0,0.0,0.0,0.231361,0.0,0.0,0.0,1.798281,2
1629387399520177176,126003,1629387399500000000,gpsRover,1,3,33.9111329388,-84.5300072458,300.976,0.312481,0.0,0.0,0.0,0.231361,0.0,0.0,0.0,1.798281,2
1629387399569242127,126004,1629387399549999952,gpsRover,1,3,33.9111329072,-84.5300072233,300.976,0.312481,0.0,0.0,0.0,0.231361,0.0,0.0,0.0,1.798281,2
1629387399623468758,126005,1629387399599999905,gpsRover,1,3,33.9111328727,-84.5300072057,300.977,0.312481,0.0,0.0,0.0,0.231361,0.0,0.0,0.0,1.798281,2
1629387399669983359,126006,1629387399650000095,gpsRover,1,3,33.9111328765,-84.5300072173,300.98,0.312481,0.0,0.0,0.0,0.231361,0.0,0.0,0.0,1.798281,2
1629387399719125914,126007,1629387399700000048,gpsRover,1,3,33.9111328853,-84.5300072142,300.982,0.312481,0.0,0.0,0.0,0.231361,0.0,0.0,0.0,1.798281,2
1629387399770076451,126008,1629387399750000000,gpsRover,1,3,33.9111328792,-84.5300072178,300.981,0.312481,0.0,0.0,0.0,0.231361,0.0,0.0,0.0,1.798281,2
1629387399819004542,126009,1629387399799999952,gpsRover,1,3,33.9111328807,-84.5300072295,300.975,0.312481,0.0,0.0,0.0,0.231361,0.0,0.0,0.0,1.798281,2
1629387399869985332,126010,1629387399849999905,gpsRover,1,3,33.9111328757,-84.5300072232,300.981,0.312481,0.0,0.0,0.0,0.231361,0.0,0.0,0.0,1.798281,2
1629387399920006056,126011,1629387399900000095,gpsRover,1,3,33.9111328733,-84.5300072302,300.983,0.312481,0.0,0.0,0.0,0.231361,0.0,0.0,0.0,1.798281,2
1629387399970093431,126012,1629387399950000048,gpsRover,1,3,33.9111328782,-84.5300072367,300.976,0.312481,0.0,0.0,0.0,0.231361,0.0,0.0,0.0,1.798281,2
1629387400020820218,126013,1629387400000000000,gpsRover,1,3,33.911132872,-84.5300072213,300.975,0.312481,0.0,0.0,0.0,0.231361,0.0,0.0,0.0,1.798281,2
1629387400089765152,126014,1629387400049999952,gpsRover,1,3,33.9111328662,-84.5300072362,300.978,0.315844,0.0,0.0,0.0,0.234256,0.0,0.0,0.0,1.817104,2
1629387400120770897,126015,1629387400099999905,gpsRover,1,3,33.9111328533,-84.5300072487,300.98,0.315844,0.0,0.0,0.0,0.234256,0.0,0.0,0.0,1.817104,2
1629387400169734662,126016,1629387400150000095,gpsRover,1,3,33.9111328578,-84.5300072263,300.981,0.315844,0.0,0.0,0.0,0.234256,0.0,0.0,0.0,1.817104,2
1629387400219682766,126017,1629387400200000048,gpsRover,1,3,33.9111328727,-84.5300072085,300.984,0.315844,0.0,0.0,0.0,0.234256,0.0,0.0,0.0,1.817104,2
1629387400269678489,126018,1629387400250000000,gpsRover,1,3,33.9111328453,-84.530007219,300.984,0.315844,0.0,0.0,0.0,0.234256,0.0,0.0,0.0,1.817104,2
1629387400319698344,126019,1629387400299999952,gpsRover,1,3,33.91113283,-84.5300072268,300.983,0.315844,0.0,0.0,0.0,0.234256,0.0,0.0,0.0,1.817104,2
1629387400370681807,126020,1629387400349999905,gpsRover,1,3,33.9111328392,-84.5300072372,300.975,0.315844,0.0,0.0,0.0,0.234256,0.0,0.0,0.0,1.817104,2
1629387400419643042,126021,1629387400400000095,gpsRover,1,3,33.9111328282,-84.5300072337,300.983,0.315844,0.0,0.0,0.0,0.234256,0.0,0.0,0.0,1.817104,2
1629387400470656290,126022,1629387400450000048,gpsRover,1,3,33.9111328292,-84.5300072537,300.979,0.315844,0.0,0.0,0.0,0.234256,0.0,0.0,0.0,1.817104,2
1629387400523548365,126023,1629387400500000000,gpsRover,1,3,33.9111328277,-84.5300072545,300.987,0.315844,0.0,0.0,0.0,0.234256,0.0,0.0,0.0,1.817104,2
1629387400569634222,126024,1629387400549999952,gpsRover,1,3,33.9111328317,-84.5300072392,300.981,0.315844,0.0,0.0,0.0,0.234256,0.0,0.0,0.0,1.817104,2
1629387400619506053,126025,1629387400599999905,gpsRover,1,3,33.9111328295,-84.5300072243,300.985,0.315844,0.0,0.0,0.0,0.234256,0.0,0.0,0.0,1.817104,2
1629387400669305877,126026,1629387400650000095,gpsRover,1,3,33.9111328193,-84.5300072062,300.987,0.315844,0.0,0.0,0.0,0.234256,0.0,0.0,0.0,1.817104,2
1629387400719390588,126027,1629387400700000048,gpsRover,1,3,33.9111327953,-84.5300072365,300.988,0.315844,0.0,0.0,0.0,0.234256,0.0,0.0,0.0,1.817104,2
1629387400769333627,126028,1629387400750000000,gpsRover,1,3,33.9111327893,-84.5300072507,300.985,0.315844,0.0,0.0,0.0,0.234256,0.0,0.0,0.0,1.817104,2
1629387400819624890,126029,1629387400799999952,gpsRover,1,3,33.911132784,-84.5300072458,300.988,0.315844,0.0,0.0,0.0,0.234256,0.0,0.0,0.0,1.817104,2
1629387400870493301,126030,1629387400849999905,gpsRover,1,3,33.911132775,-84.5300072303,300.985,0.315844,0.0,0.0,0.0,0.234256,0.0,0.0,0.0,1.817104,2
1629387400920385933,126031,1629387400900000095,gpsRover,1,3,33.9111327738,-84.5300072192,300.988,0.315844,0.0,0.0,0.0,0.234256,0.0,0.0,0.0,1.817104,2
1629387400969403373,126032,1629387400950000048,gpsRover,1,3,33.9111327907,-84.5300071932,300.991,0.315844,0.0,0.0,0.0,0.234256,0.0,0.0,0.0,1.817104,2
1629387401020118122,126033,1629387401000000000,gpsRover,1,3,33.9111327993,-84.5300071808,300.985,0.315844,0.0,0.0,0.0,0.234256,0.0,0.0,0.0,1.817104,2
1629387401089038665,126034,1629387401049999952,gpsRover,1,3,33.9111327662,-84.5300072177,300.985,0.319225,0.0,0.0,0.0,0.237169,0.0,0.0,0.0,1.836025,2
1629387401121188350,126035,1629387401099999905,gpsRover,1,3,33.9111327737,-84.5300071917,300.98,0.319225,0.0,0.0,0.0,0.237169,0.0,0.0,0.0,1.836025,2
1629387401170160786,126036,1629387401150000095,gpsRover,1,3,33.911132745,-84.5300071872,300.994,0.319225,0.0,0.0,0.0,0.237169,0.0,0.0,0.0,1.836025,2
1629387401220224788,126037,1629387401200000048,gpsRover,1,3,33.9111327622,-84.5300071648,300.985,0.319225,0.0,0.0,0.0,0.237169,0.0,0.0,0.0,1.836025,2
1629387401270045353,126038,1629387401250000000,gpsRover,1,3,33.9111327927,-84.5300071548,300.986,0.319225,0.0,0.0,0.0,0.237169,0.0,0.0,0.0,1.836025,2
1629387401320198393,126039,1629387401299999952,gpsRover,1,3,33.9111327783,-84.5300071653,300.984,0.319225,0.0,0.0,0.0,0.237169,0.0,0.0,0.0,1.836025,2
1629387401369959480,126040,1629387401349999905,gpsRover,1,3,33.9111327528,-84.5300071808,300.995,0.319225,0.0,0.0,0.0,0.237169,0.0,0.0,0.0,1.836025,2
1629387401420289783,126041,1629387401400000095,gpsRover,1,3,33.9111327433,-84.5300071645,300.992,0.319225,0.0,0.0,0.0,0.237169,0.0,0.0,0.0,1.836025,2
1629387401469080806,126042,1629387401450000048,gpsRover,1,3,33.911132743,-84.530007152,300.986,0.319225,0.0,0.0,0.0,0.237169,0.0,0.0,0.0,1.836025,2
1629387401522782246,126043,1629387401500000000,gpsRover,1,3,33.9111327512,-84.530007137,300.993,0.319225,0.0,0.0,0.0,0.237169,0.0,0.0,0.0,1.836025,2
1629387401570050003,126044,1629387401549999952,gpsRover,1,3,33.9111327275,-84.530007139,300.99,0.319225,0.0,0.0,0.0,0.237169,0.0,0.0,0.0,1.836025,2
1629387401618757519,126045,1629387401599999905,gpsRover,1,3,33.9111327208,-84.5300071445,300.997,0.319225,0.0,0.0,0.0,0.237169,0.0,0.0,0.0,1.836025,2
1629387401669825278,126046,1629387401650000095,gpsRover,1,3,33.911132731,-84.5300071603,300.989,0.319225,0.0,0.0,0.0,0.237169,0.0,0.0,0.0,1.836025,2
1629387401719799305,126047,1629387401700000048,gpsRover,1,3,33.9111327205,-84.530007175,301.002,0.319225,0.0,0.0,0.0,0.237169,0.0,0.0,0.0,1.836025,2
1629387401769964906,126048,1629387401750000000,gpsRover,1,3,33.9111327012,-84.530007165,301.0,0.319225,0.0,0.0,0.0,0.237169,0.0,0.0,0.0,1.836025,2
1629387401820026145,126049,1629387401799999952,gpsRover,1,3,33.9111326817,-84.5300071585,300.998,0.319225,0.0,0.0,0.0,0.237169,0.0,0.0,0.0,1.836025,2
1629387401868652188,126050,1629387401849999905,gpsRover,1,3,33.9111326738,-84.5300071817,300.993,0.319225,0.0,0.0,0.0,0.237169,0.0,0.0,0.0,1.836025,2
1629387401920799049,126051,1629387401900000095,gpsRover,1,3,33.9111326845,-84.530007178,300.998,0.319225,0.0,0.0,0.0,0.237169,0.0,0.0,0.0,1.836025,2
1629387401970152178,126052,1629387401950000048,gpsRover,1,3,33.9111326917,-84.5300071658,301.006,0.319225,0.0,0.0,0.0,0.237169,0.0,0.0,0.0,1.836025,2
1629387402020684293,126053,1629387402000000000,gpsRover,1,3,33.9111327033,-84.530007182,300.996,0.319225,0.0,0.0,0.0,0.237169,0.0,0.0,0.0,1.836025,2
1629387402089546209,126054,1629387402049999952,gpsRover,1,3,33.9111326963,-84.5300072015,301.002,0.381924,0.0,0.0,0.0,0.285156,0.0,0.0,0.0,2.178576,2
1629387402121664077,126055,1629387402099999905,gpsRover,1,3,33.9111326925,-84.5300071975,301.001,0.381924,0.0,0.0,0.0,0.285156,0.0,0.0,0.0,2.178576,2
1629387402170606514,126056,1629387402150000095,gpsRover,1,3,33.9111326912,-84.530007183,300.999,0.381924,0.0,0.0,0.0,0.285156,0.0,0.0,0.0,2.178576,2
1629387402219514447,126057,1629387402200000048,gpsRover,1,3,33.9111326918,-84.5300071875,301.001,0.381924,0.0,0.0,0.0,0.285156,0.0,0.0,0.0,2.178576,2
1629387402270565843,126058,1629387402250000000,gpsRover,1,3,33.9111327087,-84.5300071807,301.005,0.381924,0.0,0.0,0.0,0.285156,0.0,0.0,0.0,2.178576,2
1629387402320546867,126059,1629387402299999952,gpsRover,1,3,33.9111327045,-84.5300071825,300.999,0.381924,0.0,0.0,0.0,0.285156,0.0,0.0,0.0,2.178576,2
1629387402369445703,126060,1629387402349999905,gpsRover,1,3,33.9111326663,-84.530007194,301.004,0.381924,0.0,0.0,0.0,0.285156,0.0,0.0,0.0,2.178576,2
1629387402420516468,126061,1629387402400000095,gpsRover,1,3,33.9111326583,-84.5300071835,301.005,0.381924,0.0,0.0,0.0,0.285156,0.0,0.0,0.0,2.178576,2
1629387402470313564,126062,1629387402450000048,gpsRover,1,3,33.9111326513,-84.5300071535,301.001,0.381924,0.0,0.0,0.0,0.285156,0.0,0.0,0.0,2.178576,2
1629387402525217246,126063,1629387402500000000,gpsRover,1,3,33.9111326203,-84.5300071657,301.009,0.381924,0.0,0.0,0.0,0.285156,0.0,0.0,0.0,2.178576,2
1629387402572271723,126064,1629387402549999952,gpsRover,1,3,33.9111326132,-84.5300071783,301.007,0.381924,0.0,0.0,0.0,0.285156,0.0,0.0,0.0,2.178576,2
1629387402621283155,126065,1629387402599999905,gpsRover,1,3,33.9111326,-84.5300071803,301.016,0.381924,0.0,0.0,0.0,0.285156,0.0,0.0,0.0,2.178576,2
1629387402670361877,126066,1629387402650000095,gpsRover,1,3,33.9111325953,-84.5300072013,301.011,0.381924,0.0,0.0,0.0,0.285156,0.0,0.0,0.0,2.178576,2
1629387402721355108,126067,1629387402700000048,gpsRover,1,3,33.9111325768,-84.5300071978,301.017,0.381924,0.0,0.0,0.0,0.285156,0.0,0.0,0.0,2.178576,2
1629387402771272930,126068,1629387402750000000,gpsRover,1,3,33.9111325592,-84.530007185,301.014,0.381924,0.0,0.0,0.0,0.285156,0.0,0.0,0.0,2.178576,2
1629387402821337971,126069,1629387402799999952,gpsRover,1,3,33.9111325522,-84.5300072028,301.018,0.381924,0.0,0.0,0.0,0.285156,0.0,0.0,0.0,2.178576,2
1629387402871156196,126070,1629387402849999905,gpsRover,1,3,33.9111325607,-84.5300071822,301.019,0.381924,0.0,0.0,0.0,0.285156,0.0,0.0,0.0,2.178576,2
1629387402921111282,126071,1629387402900000095,gpsRover,1,3,33.9111325503,-84.53000717,301.02,0.381924,0.0,0.0,0.0,0.285156,0.0,0.0,0.0,2.178576,2
1629387402972127734,126072,1629387402950000048,gpsRover,1,3,33.9111325485,-84.5300071917,301.02,0.381924,0.0,0.0,0.0,0.285156,0.0,0.0,0.0,2.178576,2
1629387403022135595,126073,1629387403000000000,gpsRover,1,3,33.9111325483,-84.5300072127,301.022,0.381924,0.0,0.0,0.0,0.285156,0.0,0.0,0.0,2.178576,2
1629387403090941726,126074,1629387403049999952,gpsRover,1,3,33.9111325387,-84.5300072007,301.027,0.3969,0.0,0.0,0.0,0.297025,0.0,0.0,0.0,2.265025,2
1629387403121967879,126075,1629387403099999905,gpsRover,1,3,33.9111325425,-84.5300071907,301.025,0.3969,0.0,0.0,0.0,0.297025,0.0,0.0,0.0,2.265025,2
1629387403171218184,126076,1629387403150000095,gpsRover,1,3,33.9111325257,-84.530007205,301.028,0.3969,0.0,0.0,0.0,0.297025,0.0,0.0,0.0,2.265025,2
1629387403221848549,126077,1629387403200000048,gpsRover,1,3,33.9111325197,-84.530007197,301.029,0.3969,0.0,0.0,0.0,0.297025,0.0,0.0,0.0,2.265025,2
1629387403271801666,126078,1629387403250000000,gpsRover,1,3,33.911132534,-84.5300072055,301.025,0.3969,0.0,0.0,0.0,0.297025,0.0,0.0,0.0,2.265025,2
1629387403321840556,126079,1629387403299999952,gpsRover,1,3,33.9111325242,-84.5300072232,301.022,0.3969,0.0,0.0,0.0,0.297025,0.0,0.0,0.0,2.265025,2
1629387403372186082,126080,1629387403349999905,gpsRover,1,3,33.911132513,-84.5300072158,301.028,0.3969,0.0,0.0,0.0,0.297025,0.0,0.0,0.0,2.265025,2
1629387403420813915,126081,1629387403400000095,gpsRover,1,3,33.9111325183,-84.5300072268,301.03,0.3969,0.0,0.0,0.0,0.297025,0.0,0.0,0.0,2.265025,2
1629387403469618164,126082,1629387403450000048,gpsRover,1,3,33.9111324935,-84.5300072287,301.028,0.3969,0.0,0.0,0.0,0.297025,0.0,0.0,0.0,2.265025,2
1629387403523976029,126083,1629387403500000000,gpsRover,1,3,33.9111324883,-84.5300071978,301.031,0.3969,0.0,0.0,0.0,0.297025,0.0,0.0,0.0,2.265025,2
1629387403570816681,126084,1629387403549999952,gpsRover,1,3,33.9111325012,-84.530007202,301.032,0.3969,0.0,0.0,0.0,0.297025,0.0,0.0,0.0,2.265025,2
1629387403619959521,126085,1629387403599999905,gpsRover,1,3,33.9111325028,-84.5300072083,301.03,0.3969,0.0,0.0,0.0,0.297025,0.0,0.0,0.0,2.265025,2
1629387403670530768,126086,1629387403650000095,gpsRover,1,3,33.911132493,-84.530007189,301.036,0.3969,0.0,0.0,0.0,0.297025,0.0,0.0,0.0,2.265025,2
1629387403720679387,126087,1629387403700000048,gpsRover,1,3,33.9111324752,-84.5300071903,301.032,0.3969,0.0,0.0,0.0,0.297025,0.0,0.0,0.0,2.265025,2
1629387403769581973,126088,1629387403750000000,gpsRover,1,3,33.9111324742,-84.5300072142,301.028,0.3969,0.0,0.0,0.0,0.297025,0.0,0.0,0.0,2.265025,2
1629387403819838723,126089,1629387403799999952,gpsRover,1,3,33.9111324837,-84.53000721,301.028,0.3969,0.0,0.0,0.0,0.297025,0.0,0.0,0.0,2.265025,2
1629387403869461013,126090,1629387403849999905,gpsRover,1,3,33.9111324728,-84.5300071927,301.025,0.3969,0.0,0.0,0.0,0.297025,0.0,0.0,0.0,2.265025,2
1629387403920386737,126091,1629387403900000095,gpsRover,1,3,33.9111324252,-84.530007191,301.032,0.3969,0.0,0.0,0.0,0.297025,0.0,0.0,0.0,2.265025,2
1629387403969509718,126092,1629387403950000048,gpsRover,1,3,33.911132408,-84.5300071693,301.043,0.3969,0.0,0.0,0.0,0.297025,0.0,0.0,0.0,2.265025,2
1629387404021471933,126093,1629387404000000000,gpsRover,1,3,33.911132405,-84.530007165,301.034,0.3969,0.0,0.0,0.0,0.297025,0.0,0.0,0.0,2.265025,2
1629387404090330941,126094,1629387404049999952,gpsRover,1,3,33.9111323902,-84.5300071777,301.038,0.407044,0.0,0.0,0.0,0.305809,0.0,0.0,0.0,2.319529,2
1629387404119518902,126095,1629387404099999905,gpsRover,1,3,33.911132375,-84.5300071565,301.043,0.407044,0.0,0.0,0.0,0.305809,0.0,0.0,0.0,2.319529,2
1629387404170326546,126096,1629387404150000095,gpsRover,1,3,33.9111323823,-84.5300071427,301.037,0.407044,0.0,0.0,0.0,0.305809,0.0,0.0,0.0,2.319529,2
1629387404220076050,126097,1629387404200000048,gpsRover,1,3,33.91113238,-84.5300071375,301.044,0.407044,0.0,0.0,0.0,0.305809,0.0,0.0,0.0,2.319529,2
1629387404269327592,126098,1629387404250000000,gpsRover,1,3,33.9111323868,-84.5300071375,301.043,0.407044,0.0,0.0,0.0,0.305809,0.0,0.0,0.0,2.319529,2
1629387404320511853,126099,1629387404299999952,gpsRover,1,3,33.9111323543,-84.5300071542,301.043,0.407044,0.0,0.0,0.0,0.305809,0.0,0.0,0.0,2.319529,2
1629387404370026647,126100,1629387404349999905,gpsRover,1,3,33.9111323422,-84.5300071335,301.046,0.407044,0.0,0.0,0.0,0.305809,0.0,0.0,0.0,2.319529,2
1629387404420969762,126101,1629387404400000095,gpsRover,1,3,33.9111323468,-84.5300071155,301.044,0.407044,0.0,0.0,0.0,0.305809,0.0,0.0,0.0,2.319529,2
1629387404470344348,126102,1629387404450000048,gpsRover,1,3,33.9111323382,-84.5300071188,301.047,0.407044,0.0,0.0,0.0,0.305809,0.0,0.0,0.0,2.319529,2
1629387404523937053,126103,1629387404500000000,gpsRover,1,3,33.9111323338,-84.530007122,301.051,0.407044,0.0,0.0,0.0,0.305809,0.0,0.0,0.0,2.319529,2
1629387404570154241,126104,1629387404549999952,gpsRover,1,3,33.9111323235,-84.5300071237,301.047,0.407044,0.0,0.0,0.0,0.305809,0.0,0.0,0.0,2.319529,2
1629387404619875903,126105,1629387404599999905,gpsRover,1,3,33.9111323008,-84.5300071142,301.048,0.407044,0.0,0.0,0.0,0.305809,0.0,0.0,0.0,2.319529,2
1629387404668918105,126106,1629387404650000095,gpsRover,1,3,33.9111323012,-84.530007095,301.054,0.407044,0.0,0.0,0.0,0.305809,0.0,0.0,0.0,2.319529,2
1629387404718959120,126107,1629387404700000048,gpsRover,1,3,33.9111323027,-84.5300070828,301.049,0.407044,0.0,0.0,0.0,0.305809,0.0,0.0,0.0,2.319529,2
1629387404769943466,126108,1629387404750000000,gpsRover,1,3,33.9111322935,-84.5300070803,301.048,0.407044,0.0,0.0,0.0,0.305809,0.0,0.0,0.0,2.319529,2
1629387404818839603,126109,1629387404799999952,gpsRover,1,3,33.9111322862,-84.5300070685,301.046,0.407044,0.0,0.0,0.0,0.305809,0.0,0.0,0.0,2.319529,2
1629387404869946338,126110,1629387404849999905,gpsRover,1,3,33.9111322733,-84.5300070702,301.052,0.407044,0.0,0.0,0.0,0.305809,0.0,0.0,0.0,2.319529,2
1629387404918699185,126111,1629387404900000095,gpsRover,1,3,33.9111322862,-84.530007067,301.053,0.407044,0.0,0.0,0.0,0.305809,0.0,0.0,0.0,2.319529,2
1629387404969699481,126112,1629387404950000048,gpsRover,1,3,33.9111322863,-84.530007073,301.053,0.407044,0.0,0.0,0.0,0.305809,0.0,0.0,0.0,2.319529,2
1629387405020912430,126113,1629387405000000000,gpsRover,1,3,33.9111322532,-84.5300070788,301.048,0.407044,0.0,0.0,0.0,0.305809,0.0,0.0,0.0,2.319529,2
1629387405089564006,126114,1629387405049999952,gpsRover,1,3,33.9111322648,-84.5300070812,301.051,0.413449,0.0,0.0,0.0,0.309136,0.0,0.0,0.0,2.350089,2
1629387405120685448,126115,1629387405099999905,gpsRover,1,3,33.9111322725,-84.5300070975,301.053,0.413449,0.0,0.0,0.0,0.309136,0.0,0.0,0.0,2.350089,2
1629387405169756196,126116,1629387405150000095,gpsRover,1,3,33.9111322757,-84.5300070937,301.048,0.413449,0.0,0.0,0.0,0.309136,0.0,0.0,0.0,2.350089,2
1629387405220564143,126117,1629387405200000048,gpsRover,1,3,33.9111322563,-84.5300070877,301.054,0.413449,0.0,0.0,0.0,0.309136,0.0,0.0,0.0,2.350089,2
1629387405269582332,126118,1629387405250000000,gpsRover,1,3,33.9111322497,-84.5300070808,301.055,0.413449,0.0,0.0,0.0,0.309136,0.0,0.0,0.0,2.350089,2
1629387405320583922,126119,1629387405299999952,gpsRover,1,3,33.9111322382,-84.530007084,301.056,0.413449,0.0,0.0,0.0,0.309136,0.0,0.0,0.0,2.350089,2
1629387405370515462,126120,1629387405349999905,gpsRover,1,3,33.9111322292,-84.5300070657,301.063,0.413449,0.0,0.0,0.0,0.309136,0.0,0.0,0.0,2.350089,2
1629387405419497043,126121,1629387405400000095,gpsRover,1,3,33.9111322347,-84.530007059,301.058,0.413449,0.0,0.0,0.0,0.309136,0.0,0.0,0.0,2.350089,2
1629387405470442821,126122,1629387405450000048,gpsRover,1,3,33.9111322372,-84.5300070738,301.052,0.413449,0.0,0.0,0.0,0.309136,0.0,0.0,0.0,2.350089,2
1629387405523514777,126123,1629387405500000000,gpsRover,1,3,33.9111322242,-84.5300070965,301.062,0.413449,0.0,0.0,0.0,0.309136,0.0,0.0,0.0,2.350089,2
1629387405570247282,126124,1629387405549999952,gpsRover,1,3,33.9111322332,-84.530007107,301.062,0.413449,0.0,0.0,0.0,0.309136,0.0,0.0,0.0,2.350089,2
1629387405619243219,126125,1629387405599999905,gpsRover,1,3,33.9111322313,-84.530007096,301.059,0.413449,0.0,0.0,0.0,0.309136,0.0,0.0,0.0,2.350089,2
1629387405670397698,126126,1629387405650000095,gpsRover,1,3,33.9111322313,-84.5300070833,301.06,0.413449,0.0,0.0,0.0,0.309136,0.0,0.0,0.0,2.350089,2
1629387405719278589,126127,1629387405700000048,gpsRover,1,3,33.9111322285,-84.5300070852,301.063,0.413449,0.0,0.0,0.0,0.309136,0.0,0.0,0.0,2.350089,2
1629387405769321768,126128,1629387405750000000,gpsRover,1,3,33.911132225,-84.5300070707,301.064,0.413449,0.0,0.0,0.0,0.309136,0.0,0.0,0.0,2.350089,2
1629387405819164921,126129,1629387405799999952,gpsRover,1,3,33.9111322237,-84.5300070752,301.062,0.413449,0.0,0.0,0.0,0.309136,0.0,0.0,0.0,2.350089,2
1629387405869041186,126130,1629387405849999905,gpsRover,1,3,33.9111322095,-84.5300070833,301.06,0.413449,0.0,0.0,0.0,0.309136,0.0,0.0,0.0,2.350089,2
1629387405920115409,126131,1629387405900000095,gpsRover,1,3,33.911132191,-84.5300070938,301.067,0.413449,0.0,0.0,0.0,0.309136,0.0,0.0,0.0,2.350089,2
1629387405970053390,126132,1629387405950000048,gpsRover,1,3,33.9111321885,-84.5300070855,301.066,0.413449,0.0,0.0,0.0,0.309136,0.0,0.0,0.0,2.350089,2
1629387406020367437,126133,1629387406000000000,gpsRover,1,3,33.9111321743,-84.530007092,301.063,0.413449,0.0,0.0,0.0,0.309136,0.0,0.0,0.0,2.350089,2
1629387406090020155,126134,1629387406049999952,gpsRover,1,3,33.9111321868,-84.5300070865,301.065,0.418609,0.0,0.0,0.0,0.3136,0.0,0.0,0.0,2.377764,2
1629387406120424732,126135,1629387406099999905,gpsRover,1,3,33.9111321792,-84.5300070875,301.068,0.418609,0.0,0.0,0.0,0.3136,0.0,0.0,0.0,2.377764,2
1629387406169947748,126136,1629387406150000095,gpsRover,1,3,33.9111321617,-84.5300070572,301.075,0.418609,0.0,0.0,0.0,0.3136,0.0,0.0,0.0,2.377764,2
1629387406220244265,126137,1629387406200000048,gpsRover,1,3,33.9111321547,-84.5300070488,301.071,0.418609,0.0,0.0,0.0,0.3136,0.0,0.0,0.0,2.377764,2
1629387406270818837,126138,1629387406250000000,gpsRover,1,3,33.9111321603,-84.5300070658,301.077,0.418609,0.0,0.0,0.0,0.3136,0.0,0.0,0.0,2.377764,2
1629387406320005710,126139,1629387406299999952,gpsRover,1,3,33.9111321572,-84.5300070672,301.071,0.418609,0.0,0.0,0.0,0.3136,0.0,0.0,0.0,2.377764,2
1629387406369791822,126140,1629387406349999905,gpsRover,1,3,33.9111321525,-84.5300070635,301.073,0.418609,0.0,0.0,0.0,0.3136,0.0,0.0,0.0,2.377764,2
1629387406419942481,126141,1629387406400000095,gpsRover,1,3,33.9111321615,-84.5300070698,301.073,0.418609,0.0,0.0,0.0,0.3136,0.0,0.0,0.0,2.377764,2
1629387406469776506,126142,1629387406450000048,gpsRover,1,3,33.9111321475,-84.5300070758,301.067,0.418609,0.0,0.0,0.0,0.3136,0.0,0.0,0.0,2.377764,2
1629387406523826434,126143,1629387406500000000,gpsRover,1,3,33.9111321477,-84.5300070728,301.074,0.418609,0.0,0.0,0.0,0.3136,0.0,0.0,0.0,2.377764,2
1629387406569648150,126144,1629387406549999952,gpsRover,1,3,33.9111321472,-84.5300070753,301.074,0.418609,0.0,0.0,0.0,0.3136,0.0,0.0,0.0,2.377764,2
1629387406619807242,126145,1629387406599999905,gpsRover,1,3,33.9111321352,-84.530007075,301.071,0.418609,0.0,0.0,0.0,0.3136,0.0,0.0,0.0,2.377764,2
1629387406669624688,126146,1629387406650000095,gpsRover,1,3,33.911132147,-84.5300070732,301.078,0.418609,0.0,0.0,0.0,0.3136,0.0,0.0,0.0,2.377764,2
1629387406719527606,126147,1629387406700000048,gpsRover,1,3,33.9111321455,-84.5300070705,301.077,0.418609,0.0,0.0,0.0,0.3136,0.0,0.0,0.0,2.377764,2
1629387406769511214,126148,1629387406750000000,gpsRover,1,3,33.9111321415,-84.5300070643,301.077,0.418609,0.0,0.0,0.0,0.3136,0.0,0.0,0.0,2.377764,2
1629387406819912048,126149,1629387406799999952,gpsRover,1,3,33.9111321407,-84.530007071,301.086,0.418609,0.0,0.0,0.0,0.3136,0.0,0.0,0.0,2.377764,2
1629387406869636772,126150,1629387406849999905,gpsRover,1,3,33.9111321372,-84.530007066,301.085,0.418609,0.0,0.0,0.0,0.3136,0.0,0.0,0.0,2.377764,2
1629387406919418516,126151,1629387406900000095,gpsRover,1,3,33.9111321407,-84.5300070748,301.084,0.418609,0.0,0.0,0.0,0.3136,0.0,0.0,0.0,2.377764,2
1629387406969387121,126152,1629387406950000048,gpsRover,1,3,33.9111321505,-84.5300070483,301.085,0.418609,0.0,0.0,0.0,0.3136,0.0,0.0,0.0,2.377764,2
1629387407020361521,126153,1629387407000000000,gpsRover,1,3,33.9111321072,-84.5300070563,301.091,0.418609,0.0,0.0,0.0,0.3136,0.0,0.0,0.0,2.377764,2
1629387407089321958,126154,1629387407049999952,gpsRover,1,3,33.9111321288,-84.5300070498,301.088,0.431649,0.0,0.0,0.0,0.323761,0.0,0.0,0.0,2.452356,2
1629387407120564702,126155,1629387407099999905,gpsRover,1,3,33.9111321258,-84.5300070517,301.093,0.431649,0.0,0.0,0.0,0.323761,0.0,0.0,0.0,2.452356,2
1629387407169244935,126156,1629387407150000095,gpsRover,1,3,33.9111320905,-84.5300070693,301.086,0.431649,0.0,0.0,0.0,0.323761,0.0,0.0,0.0,2.452356,2
1629387407219366781,126157,1629387407200000048,gpsRover,1,3,33.9111320838,-84.530007068,301.097,0.431649,0.0,0.0,0.0,0.323761,0.0,0.0,0.0,2.452356,2
1629387407270367870,126158,1629387407250000000,gpsRover,1,3,33.9111320837,-84.530007087,301.09,0.431649,0.0,0.0,0.0,0.323761,0.0,0.0,0.0,2.452356,2
1629387407320156956,126159,1629387407299999952,gpsRover,1,3,33.911132084,-84.5300070997,301.088,0.431649,0.0,0.0,0.0,0.323761,0.0,0.0,0.0,2.452356,2
1629387407369385903,126160,1629387407349999905,gpsRover,1,3,33.9111321022,-84.5300070917,301.088,0.431649,0.0,0.0,0.0,0.323761,0.0,0.0,0.0,2.452356,2
1629387407420349069,126161,1629387407400000095,gpsRover,1,3,33.9111320983,-84.530007086,301.093,0.431649,0.0,0.0,0.0,0.323761,0.0,0.0,0.0,2.452356,2
1629387407470373348,126162,1629387407450000048,gpsRover,1,3,33.9111320857,-84.5300070808,301.097,0.431649,0.0,0.0,0.0,0.323761,0.0,0.0,0.0,2.452356,2
1629387407523297208,126163,1629387407500000000,gpsRover,1,3,33.911132064,-84.5300071115,301.096,0.431649,0.0,0.0,0.0,0.323761,0.0,0.0,0.0,2.452356,2
1629387407570236000,126164,1629387407549999952,gpsRover,1,3,33.9111320642,-84.5300071203,301.095,0.431649,0.0,0.0,0.0,0.323761,0.0,0.0,0.0,2.452356,2
1629387407620361729,126165,1629387407599999905,gpsRover,1,3,33.9111320605,-84.5300071087,301.095,0.431649,0.0,0.0,0.0,0.323761,0.0,0.0,0.0,2.452356,2
1629387407668986526,126166,1629387407650000095,gpsRover,1,3,33.911132042,-84.5300071198,301.095,0.431649,0.0,0.0,0.0,0.323761,0.0,0.0,0.0,2.452356,2
1629387407720141607,126167,1629387407700000048,gpsRover,1,3,33.9111320357,-84.5300071392,301.097,0.431649,0.0,0.0,0.0,0.323761,0.0,0.0,0.0,2.452356,2
1629387407768898760,126168,1629387407750000000,gpsRover,1,3,33.9111320177,-84.530007148,301.097,0.431649,0.0,0.0,0.0,0.323761,0.0,0.0,0.0,2.452356,2
1629387407820050357,126169,1629387407799999952,gpsRover,1,3,33.9111319928,-84.5300071822,301.101,0.431649,0.0,0.0,0.0,0.323761,0.0,0.0,0.0,2.452356,2
1629387407869310912,126170,1629387407849999905,gpsRover,1,3,33.9111319885,-84.5300071985,301.107,0.431649,0.0,0.0,0.0,0.323761,0.0,0.0,0.0,2.452356,2
1629387407919796543,126171,1629387407900000095,gpsRover,1,3,33.9111320048,-84.5300071843,301.104,0.431649,0.0,0.0,0.0,0.323761,0.0,0.0,0.0,2.452356,2
1629387407970210544,126172,1629387407950000048,gpsRover,1,3,33.9111320088,-84.530007196,301.106,0.431649,0.0,0.0,0.0,0.323761,0.0,0.0,0.0,2.452356,2
1629387408020879901,126173,1629387408000000000,gpsRover,1,3,33.9111319727,-84.5300072143,301.111,0.431649,0.0,0.0,0.0,0.323761,0.0,0.0,0.0,2.452356,2
1629387408089815550,126174,1629387408049999952,gpsRover,1,3,33.911131976,-84.5300072162,301.107,0.438244,0.0,0.0,0.0,0.328329,0.0,0.0,0.0,2.480625,2
1629387408120848215,126175,1629387408099999905,gpsRover,1,3,33.9111319568,-84.5300072217,301.114,0.438244,0.0,0.0,0.0,0.328329,0.0,0.0,0.0,2.480625,2
1629387408170761322,126176,1629387408150000095,gpsRover,1,3,33.9111319677,-84.5300072228,301.11,0.438244,0.0,0.0,0.0,0.328329,0.0,0.0,0.0,2.480625,2
1629387408219753679,126177,1629387408200000048,gpsRover,1,3,33.9111319848,-84.5300072298,301.105,0.438244,0.0,0.0,0.0,0.328329,0.0,0.0,0.0,2.480625,2
1629387408269660832,126178,1629387408250000000,gpsRover,1,3,33.911131966,-84.5300072303,301.113,0.438244,0.0,0.0,0.0,0.328329,0.0,0.0,0.0,2.480625,2
1629387408320052579,126179,1629387408299999952,gpsRover,1,3,33.9111319512,-84.5300072368,301.115,0.438244,0.0,0.0,0.0,0.328329,0.0,0.0,0.0,2.480625,2
1629387408369627289,126180,1629387408349999905,gpsRover,1,3,33.9111319393,-84.5300072505,301.116,0.438244,0.0,0.0,0.0,0.328329,0.0,0.0,0.0,2.480625,2
1629387408420543782,126181,1629387408400000095,gpsRover,1,3,33.9111319475,-84.5300072437,301.112,0.438244,0.0,0.0,0.0,0.328329,0.0,0.0,0.0,2.480625,2
1629387408469534019,126182,1629387408450000048,gpsRover,1,3,33.9111319335,-84.5300072517,301.122,0.438244,0.0,0.0,0.0,0.328329,0.0,0.0,0.0,2.480625,2
1629387408523968144,126183,1629387408500000000,gpsRover,1,3,33.9111319435,-84.5300072272,301.117,0.438244,0.0,0.0,0.0,0.328329,0.0,0.0,0.0,2.480625,2
1629387408570540598,126184,1629387408549999952,gpsRover,1,3,33.911131945,-84.5300072278,301.115,0.438244,0.0,0.0,0.0,0.328329,0.0,0.0,0.0,2.480625,2
1629387408619703215,126185,1629387408599999905,gpsRover,1,3,33.9111319295,-84.5300072528,301.114,0.438244,0.0,0.0,0.0,0.328329,0.0,0.0,0.0,2.480625,2
1629387408669388492,126186,1629387408650000095,gpsRover,1,3,33.9111319392,-84.5300072478,301.12,0.438244,0.0,0.0,0.0,0.328329,0.0,0.0,0.0,2.480625,2
1629387408719396148,126187,1629387408700000048,gpsRover,1,3,33.9111319217,-84.5300072738,301.112,0.438244,0.0,0.0,0.0,0.328329,0.0,0.0,0.0,2.480625,2
1629387408769781252,126188,1629387408750000000,gpsRover,1,3,33.9111319175,-84.5300072575,301.125,0.438244,0.0,0.0,0.0,0.328329,0.0,0.0,0.0,2.480625,2
1629387408820407328,126189,1629387408799999952,gpsRover,1,3,33.911131943,-84.5300072577,301.112,0.438244,0.0,0.0,0.0,0.328329,0.0,0.0,0.0,2.480625,2
1629387408869493193,126190,1629387408849999905,gpsRover,1,3,33.9111319577,-84.5300072603,301.117,0.438244,0.0,0.0,0.0,0.328329,0.0,0.0,0.0,2.480625,2
1629387408919339079,126191,1629387408900000095,gpsRover,1,3,33.9111319322,-84.5300072745,301.124,0.438244,0.0,0.0,0.0,0.328329,0.0,0.0,0.0,2.480625,2
1629387408969316151,126192,1629387408950000048,gpsRover,1,3,33.911131926,-84.530007299,301.115,0.438244,0.0,0.0,0.0,0.328329,0.0,0.0,0.0,2.480625,2
1629387409021334290,126193,1629387409000000000,gpsRover,1,3,33.911131927,-84.5300073062,301.116,0.438244,0.0,0.0,0.0,0.328329,0.0,0.0,0.0,2.480625,2
1629387409090179511,126194,1629387409049999952,gpsRover,1,3,33.9111319213,-84.5300072948,301.12,0.443556,0.0,0.0,0.0,0.332929,0.0,0.0,0.0,2.512225,2
1629387409120430430,126195,1629387409099999905,gpsRover,1,3,33.9111319155,-84.5300072933,301.119,0.443556,0.0,0.0,0.0,0.332929,0.0,0.0,0.0,2.512225,2
1629387409169136113,126196,1629387409150000095,gpsRover,1,3,33.9111319123,-84.5300072977,301.108,0.443556,0.0,0.0,0.0,0.332929,0.0,0.0,0.0,2.512225,2
1629387409220140968,126197,1629387409200000048,gpsRover,1,3,33.9111318967,-84.530007308,301.117,0.443556,0.0,0.0,0.0,0.332929,0.0,0.0,0.0,2.512225,2
1629387409270130895,126198,1629387409250000000,gpsRover,1,3,33.9111319112,-84.5300072945,301.114,0.443556,0.0,0.0,0.0,0.332929,0.0,0.0,0.0,2.512225,2
1629387409320383892,126199,1629387409299999952,gpsRover,1,3,33.9111319127,-84.5300072983,301.117,0.443556,0.0,0.0,0.0,0.332929,0.0,0.0,0.0,2.512225,2
1629387409370025701,126200,1629387409349999905,gpsRover,1,3,33.9111319132,-84.530007317,301.113,0.443556,0.0,0.0,0.0,0.332929,0.0,0.0,0.0,2.512225,2
1629387409419084072,126201,1629387409400000095,gpsRover,1,3,33.9111319015,-84.5300073275,301.11,0.443556,0.0,0.0,0.0,0.332929,0.0,0.0,0.0,2.512225,2
1629387409470011664,126202,1629387409450000048,gpsRover,1,3,33.9111319183,-84.5300073037,301.115,0.443556,0.0,0.0,0.0,0.332929,0.0,0.0,0.0,2.512225,2
1629387409524368358,126203,1629387409500000000,gpsRover,1,3,33.9111319047,-84.530007315,301.115,0.443556,0.0,0.0,0.0,0.332929,0.0,0.0,0.0,2.512225,2
1629387409570009229,126204,1629387409549999952,gpsRover,1,3,33.9111318953,-84.5300073045,301.119,0.443556,0.0,0.0,0.0,0.332929,0.0,0.0,0.0,2.512225,2
1629387409620164419,126205,1629387409599999905,gpsRover,1,3,33.9111319337,-84.5300073047,301.114,0.443556,0.0,0.0,0.0,0.332929,0.0,0.0,0.0,2.512225,2
1629387409668884897,126206,1629387409650000095,gpsRover,1,3,33.911131913,-84.5300073143,301.119,0.443556,0.0,0.0,0.0,0.332929,0.0,0.0,0.0,2.512225,2
1629387409720042189,126207,1629387409700000048,gpsRover,1,3,33.9111318943,-84.5300072807,301.124,0.443556,0.0,0.0,0.0,0.332929,0.0,0.0,0.0,2.512225,2
1629387409768807428,126208,1629387409750000000,gpsRover,1,3,33.9111319007,-84.5300072618,301.111,0.443556,0.0,0.0,0.0,0.332929,0.0,0.0,0.0,2.512225,2
1629387409819702892,126209,1629387409799999952,gpsRover,1,3,33.9111319105,-84.5300072505,301.126,0.443556,0.0,0.0,0.0,0.332929,0.0,0.0,0.0,2.512225,2
1629387409869874425,126210,1629387409849999905,gpsRover,1,3,33.9111318965,-84.5300072595,301.121,0.443556,0.0,0.0,0.0,0.332929,0.0,0.0,0.0,2.512225,2
1629387409918693160,126211,1629387409900000095,gpsRover,1,3,33.9111318953,-84.5300072748,301.12,0.443556,0.0,0.0,0.0,0.332929,0.0,0.0,0.0,2.512225,2
1629387409969698516,126212,1629387409950000048,gpsRover,1,3,33.911131893,-84.5300072863,301.123,0.443556,0.0,0.0,0.0,0.332929,0.0,0.0,0.0,2.512225,2
1629387410019702061,126213,1629387410000000000,gpsRover,1,3,33.9111318848,-84.5300072788,301.126,0.443556,0.0,0.0,0.0,0.332929,0.0,0.0,0.0,2.512225,2
1629387410088654703,126214,1629387410049999952,gpsRover,1,3,33.9111318762,-84.5300072818,301.126,0.454276,0.0,0.0,0.0,0.341056,0.0,0.0,0.0,2.572816,2
1629387410120622686,126215,1629387410099999905,gpsRover,1,3,33.911131867,-84.530007294,301.12,0.454276,0.0,0.0,0.0,0.341056,0.0,0.0,0.0,2.572816,2
1629387410169562540,126216,1629387410150000095,gpsRover,1,3,33.9111318775,-84.5300072897,301.122,0.454276,0.0,0.0,0.0,0.341056,0.0,0.0,0.0,2.572816,2
1629387410220637508,126217,1629387410200000048,gpsRover,1,3,33.9111318897,-84.5300072912,301.128,0.454276,0.0,0.0,0.0,0.341056,0.0,0.0,0.0,2.572816,2
1629387410269541672,126218,1629387410250000000,gpsRover,1,3,33.9111318768,-84.5300073078,301.121,0.454276,0.0,0.0,0.0,0.341056,0.0,0.0,0.0,2.572816,2
1629387410320610529,126219,1629387410299999952,gpsRover,1,3,33.9111318703,-84.5300073133,301.129,0.454276,0.0,0.0,0.0,0.341056,0.0,0.0,0.0,2.572816,2
1629387410369437901,126220,1629387410349999905,gpsRover,1,3,33.9111318857,-84.5300073065,301.117,0.454276,0.0,0.0,0.0,0.341056,0.0,0.0,0.0,2.572816,2
1629387410420687740,126221,1629387410400000095,gpsRover,1,3,33.9111318867,-84.5300073008,301.127,0.454276,0.0,0.0,0.0,0.341056,0.0,0.0,0.0,2.572816,2
1629387410469390284,126222,1629387410450000048,gpsRover,1,3,33.9111318687,-84.5300073123,301.122,0.454276,0.0,0.0,0.0,0.341056,0.0,0.0,0.0,2.572816,2
1629387410523339329,126223,1629387410500000000,gpsRover,1,3,33.9111318722,-84.5300073067,301.122,0.454276,0.0,0.0,0.0,0.341056,0.0,0.0,0.0,2.572816,2
1629387410570516261,126224,1629387410549999952,gpsRover,1,3,33.911131864,-84.5300073185,301.12,0.454276,0.0,0.0,0.0,0.341056,0.0,0.0,0.0,2.572816,2
1629387410619418864,126225,1629387410599999905,gpsRover,1,3,33.911131848,-84.530007325,301.124,0.454276,0.0,0.0,0.0,0.341056,0.0,0.0,0.0,2.572816,2
1629387410670482284,126226,1629387410650000095,gpsRover,1,3,33.9111318563,-84.5300073143,301.121,0.454276,0.0,0.0,0.0,0.341056,0.0,0.0,0.0,2.572816,2
1629387410719216698,126227,1629387410700000048,gpsRover,1,3,33.9111318562,-84.5300073102,301.119,0.454276,0.0,0.0,0.0,0.341056,0.0,0.0,0.0,2.572816,2
1629387410769200272,126228,1629387410750000000,gpsRover,1,3,33.9111318502,-84.5300073045,301.123,0.454276,0.0,0.0,0.0,0.341056,0.0,0.0,0.0,2.572816,2
1629387410820349559,126229,1629387410799999952,gpsRover,1,3,33.9111318453,-84.5300072992,301.119,0.454276,0.0,0.0,0.0,0.341056,0.0,0.0,0.0,2.572816,2
1629387410869340819,126230,1629387410849999905,gpsRover,1,3,33.9111318375,-84.5300073107,301.123,0.454276,0.0,0.0,0.0,0.341056,0.0,0.0,0.0,2.572816,2
1629387410919115899,126231,1629387410900000095,gpsRover,1,3,33.9111318315,-84.530007321,301.121,0.454276,0.0,0.0,0.0,0.341056,0.0,0.0,0.0,2.572816,2
1629387410969221186,126232,1629387410950000048,gpsRover,1,3,33.9111318277,-84.5300073138,301.123,0.454276,0.0,0.0,0.0,0.341056,0.0,0.0,0.0,2.572816,2
1629387411021114174,126233,1629387411000000000,gpsRover,1,3,33.9111318312,-84.5300073272,301.115,0.454276,0.0,0.0,0.0,0.341056,0.0,0.0,0.0,2.572816,2
1629387411089964612,126234,1629387411049999952,gpsRover,1,3,33.9111318347,-84.5300073248,301.122,0.461041,0.0,0.0,0.0,0.345744,0.0,0.0,0.0,2.601769,2
1629387411120234541,126235,1629387411099999905,gpsRover,1,3,33.911131823,-84.5300073463,301.11,0.461041,0.0,0.0,0.0,0.345744,0.0,0.0,0.0,2.601769,2
1629387411170175786,126236,1629387411150000095,gpsRover,1,3,33.9111318143,-84.5300073397,301.119,0.461041,0.0,0.0,0.0,0.345744,0.0,0.0,0.0,2.601769,2
1629387411219981061,126237,1629387411200000048,gpsRover,1,3,33.9111318383,-84.5300073203,301.118,0.461041,0.0,0.0,0.0,0.345744,0.0,0.0,0.0,2.601769,2
1629387411270043998,126238,1629387411250000000,gpsRover,1,3,33.9111318415,-84.530007345,301.118,0.461041,0.0,0.0,0.0,0.345744,0.0,0.0,0.0,2.601769,2
1629387411319990159,126239,1629387411299999952,gpsRover,1,3,33.911131817,-84.5300073472,301.115,0.461041,0.0,0.0,0.0,0.345744,0.0,0.0,0.0,2.601769,2
1629387411370022857,126240,1629387411349999905,gpsRover,1,3,33.9111318103,-84.5300073542,301.115,0.461041,0.0,0.0,0.0,0.345744,0.0,0.0,0.0,2.601769,2
1629387411419824191,126241,1629387411400000095,gpsRover,1,3,33.911131793,-84.5300073625,301.119,0.461041,0.0,0.0,0.0,0.345744,0.0,0.0,0.0,2.601769,2
1629387411469727024,126242,1629387411450000048,gpsRover,1,3,33.9111317855,-84.5300073587,301.116,0.461041,0.0,0.0,0.0,0.345744,0.0,0.0,0.0,2.601769,2
1629387411523755884,126243,1629387411500000000,gpsRover,1,3,33.9111317938,-84.5300073738,301.115,0.461041,0.0,0.0,0.0,0.345744,0.0,0.0,0.0,2.601769,2
1629387411569702904,126244,1629387411549999952,gpsRover,1,3,33.9111317953,-84.530007349,301.122,0.461041,0.0,0.0,0.0,0.345744,0.0,0.0,0.0,2.601769,2
1629387411619683853,126245,1629387411599999905,gpsRover,1,3,33.9111317808,-84.530007353,301.121,0.461041,0.0,0.0,0.0,0.345744,0.0,0.0,0.0,2.601769,2
1629387411669611687,126246,1629387411650000095,gpsRover,1,3,33.9111317855,-84.5300073748,301.116,0.461041,0.0,0.0,0.0,0.345744,0.0,0.0,0.0,2.601769,2
1629387411719581917,126247,1629387411700000048,gpsRover,1,3,33.9111318005,-84.5300073845,301.117,0.461041,0.0,0.0,0.0,0.345744,0.0,0.0,0.0,2.601769,2
1629387411769550964,126248,1629387411750000000,gpsRover,1,3,33.9111318003,-84.5300074027,301.112,0.461041,0.0,0.0,0.0,0.345744,0.0,0.0,0.0,2.601769,2
1629387411818486847,126249,1629387411799999952,gpsRover,1,3,33.9111317852,-84.5300073892,301.116,0.461041,0.0,0.0,0.0,0.345744,0.0,0.0,0.0,2.601769,2
1629387411869548779,126250,1629387411849999905,gpsRover,1,3,33.9111317815,-84.5300073855,301.117,0.461041,0.0,0.0,0.0,0.345744,0.0,0.0,0.0,2.601769,2
1629387411919469716,126251,1629387411900000095,gpsRover,1,3,33.9111318008,-84.5300073762,301.115,0.461041,0.0,0.0,0.0,0.345744,0.0,0.0,0.0,2.601769,2
1629387411969468416,126252,1629387411950000048,gpsRover,1,3,33.9111318005,-84.5300073795,301.111,0.461041,0.0,0.0,0.0,0.345744,0.0,0.0,0.0,2.601769,2
1629387412020551675,126253,1629387412000000000,gpsRover,1,3,33.9111317773,-84.530007376,301.114,0.461041,0.0,0.0,0.0,0.345744,0.0,0.0,0.0,2.601769,2
1629387412088433157,126254,1629387412049999952,gpsRover,1,3,33.9111317765,-84.5300073825,301.116,0.466489,0.0,0.0,0.0,0.350464,0.0,0.0,0.0,2.634129,2
1629387412120667339,126255,1629387412099999905,gpsRover,1,3,33.9111317937,-84.5300073948,301.121,0.466489,0.0,0.0,0.0,0.350464,0.0,0.0,0.0,2.634129,2
1629387412169402426,126256,1629387412150000095,gpsRover,1,3,33.9111317958,-84.5300073995,301.112,0.466489,0.0,0.0,0.0,0.350464,0.0,0.0,0.0,2.634129,2
1629387412220558926,126257,1629387412200000048,gpsRover,1,3,33.9111317685,-84.5300073945,301.121,0.466489,0.0,0.0,0.0,0.350464,0.0,0.0,0.0,2.634129,2
1629387412269399388,126258,1629387412250000000,gpsRover,1,3,33.9111317803,-84.5300073778,301.116,0.466489,0.0,0.0,0.0,0.350464,0.0,0.0,0.0,2.634129,2
1629387412321365033,126259,1629387412299999952,gpsRover,1,3,33.9111317645,-84.5300073835,301.126,0.466489,0.0,0.0,0.0,0.350464,0.0,0.0,0.0,2.634129,2
1629387412369328575,126260,1629387412349999905,gpsRover,1,3,33.9111317415,-84.5300073845,301.123,0.466489,0.0,0.0,0.0,0.350464,0.0,0.0,0.0,2.634129,2
1629387412420123389,126261,1629387412400000095,gpsRover,1,3,33.9111317348,-84.5300073737,301.128,0.466489,0.0,0.0,0.0,0.350464,0.0,0.0,0.0,2.634129,2
1629387412469015921,126262,1629387412450000048,gpsRover,1,3,33.9111317282,-84.5300073763,301.12,0.466489,0.0,0.0,0.0,0.350464,0.0,0.0,0.0,2.634129,2
1629387412523033610,126263,1629387412500000000,gpsRover,1,3,33.9111317507,-84.5300073667,301.123,0.466489,0.0,0.0,0.0,0.350464,0.0,0.0,0.0,2.634129,2
1629387412570002818,126264,1629387412549999952,gpsRover,1,3,33.9111317545,-84.5300073845,301.121,0.466489,0.0,0.0,0.0,0.350464,0.0,0.0,0.0,2.634129,2
1629387412620867826,126265,1629387412599999905,gpsRover,1,3,33.911131741,-84.5300073973,301.122,0.466489,0.0,0.0,0.0,0.350464,0.0,0.0,0.0,2.634129,2
1629387412670991782,126266,1629387412650000095,gpsRover,1,3,33.9111317442,-84.5300073632,301.126,0.466489,0.0,0.0,0.0,0.350464,0.0,0.0,0.0,2.634129,2
1629387412719966272,126267,1629387412700000048,gpsRover,1,3,33.9111317342,-84.5300073582,301.126,0.466489,0.0,0.0,0.0,0.350464,0.0,0.0,0.0,2.634129,2
1629387412769899714,126268,1629387412750000000,gpsRover,1,3,33.9111317052,-84.5300073948,301.122,0.466489,0.0,0.0,0.0,0.350464,0.0,0.0,0.0,2.634129,2
1629387412819948756,126269,1629387412799999952,gpsRover,1,3,33.9111317102,-84.5300073803,301.128,0.466489,0.0,0.0,0.0,0.350464,0.0,0.0,0.0,2.634129,2
1629387412870271148,126270,1629387412849999905,gpsRover,1,3,33.9111317075,-84.530007362,301.129,0.466489,0.0,0.0,0.0,0.350464,0.0,0.0,0.0,2.634129,2
1629387412919807389,126271,1629387412900000095,gpsRover,1,3,33.9111317063,-84.5300073758,301.117,0.466489,0.0,0.0,0.0,0.350464,0.0,0.0,0.0,2.634129,2
1629387412969737101,126272,1629387412950000048,gpsRover,1,3,33.9111317015,-84.5300073902,301.125,0.466489,0.0,0.0,0.0,0.350464,0.0,0.0,0.0,2.634129,2
1629387413020711822,126273,1629387413000000000,gpsRover,1,3,33.9111316943,-84.5300073733,301.127,0.466489,0.0,0.0,0.0,0.350464,0.0,0.0,0.0,2.634129,2
1629387413089738753,126274,1629387413049999952,gpsRover,1,3,33.9111317052,-84.5300073647,301.122,0.488601,0.0,0.0,0.0,0.331776,0.0,0.0,0.0,2.627641,2
1629387413120598200,126275,1629387413099999905,gpsRover,1,3,33.9111317247,-84.5300073797,301.129,0.488601,0.0,0.0,0.0,0.331776,0.0,0.0,0.0,2.627641,2
1629387413169667573,126276,1629387413150000095,gpsRover,1,3,33.9111317348,-84.5300073565,301.123,0.488601,0.0,0.0,0.0,0.331776,0.0,0.0,0.0,2.627641,2
1629387413219586930,126277,1629387413200000048,gpsRover,1,3,33.9111317128,-84.5300073592,301.128,0.488601,0.0,0.0,0.0,0.331776,0.0,0.0,0.0,2.627641,2
1629387413270620989,126278,1629387413250000000,gpsRover,1,3,33.911131717,-84.530007358,301.126,0.488601,0.0,0.0,0.0,0.331776,0.0,0.0,0.0,2.627641,2
1629387413319587936,126279,1629387413299999952,gpsRover,1,3,33.9111317128,-84.5300073832,301.125,0.488601,0.0,0.0,0.0,0.331776,0.0,0.0,0.0,2.627641,2
1629387413370615634,126280,1629387413349999905,gpsRover,1,3,33.9111317203,-84.5300073868,301.129,0.488601,0.0,0.0,0.0,0.331776,0.0,0.0,0.0,2.627641,2
1629387413422656639,126281,1629387413400000095,gpsRover,1,3,33.911131721,-84.5300073665,301.132,0.488601,0.0,0.0,0.0,0.331776,0.0,0.0,0.0,2.627641,2
1629387413469406457,126282,1629387413450000048,gpsRover,1,3,33.9111317312,-84.5300073613,301.129,0.488601,0.0,0.0,0.0,0.331776,0.0,0.0,0.0,2.627641,2
1629387413525438885,126283,1629387413500000000,gpsRover,1,3,33.911131739,-84.5300073583,301.132,0.488601,0.0,0.0,0.0,0.331776,0.0,0.0,0.0,2.627641,2
1629387413570407924,126284,1629387413549999952,gpsRover,1,3,33.9111317427,-84.5300073517,301.134,0.488601,0.0,0.0,0.0,0.331776,0.0,0.0,0.0,2.627641,2
1629387413620295322,126285,1629387413599999905,gpsRover,1,3,33.911131732,-84.5300073533,301.129,0.488601,0.0,0.0,0.0,0.331776,0.0,0.0,0.0,2.627641,2
1629387413670325430,126286,1629387413650000095,gpsRover,1,3,33.9111317538,-84.5300073518,301.132,0.488601,0.0,0.0,0.0,0.331776,0.0,0.0,0.0,2.627641,2
1629387413720171033,126287,1629387413700000048,gpsRover,1,3,33.9111317552,-84.5300073682,301.128,0.488601,0.0,0.0,0.0,0.331776,0.0,0.0,0.0,2.627641,2
1629387413770177799,126288,1629387413750000000,gpsRover,1,3,33.9111317298,-84.5300073678,301.13,0.488601,0.0,0.0,0.0,0.331776,0.0,0.0,0.0,2.627641,2
1629387413820255161,126289,1629387413799999952,gpsRover,1,3,33.91113171,-84.5300073548,301.136,0.488601,0.0,0.0,0.0,0.331776,0.0,0.0,0.0,2.627641,2
1629387413870103704,126290,1629387413849999905,gpsRover,1,3,33.9111317225,-84.5300073425,301.123,0.488601,0.0,0.0,0.0,0.331776,0.0,0.0,0.0,2.627641,2
1629387413919973716,126291,1629387413900000095,gpsRover,1,3,33.911131713,-84.530007354,301.13,0.488601,0.0,0.0,0.0,0.331776,0.0,0.0,0.0,2.627641,2
1629387413970012069,126292,1629387413950000048,gpsRover,1,3,33.9111317233,-84.5300073263,301.126,0.488601,0.0,0.0,0.0,0.331776,0.0,0.0,0.0,2.627641,2
1629387414020967176,126293,1629387414000000000,gpsRover,1,3,33.9111317337,-84.5300073087,301.129,0.488601,0.0,0.0,0.0,0.331776,0.0,0.0,0.0,2.627641,2
1629387414089938088,126294,1629387414049999952,gpsRover,1,3,33.9111317217,-84.5300073083,301.131,0.495616,0.0,0.0,0.0,0.335241,0.0,0.0,0.0,2.6569,2
1629387414120908029,126295,1629387414099999905,gpsRover,1,3,33.9111317355,-84.5300072807,301.13,0.495616,0.0,0.0,0.0,0.335241,0.0,0.0,0.0,2.6569,2
1629387414169933214,126296,1629387414150000095,gpsRover,1,3,33.9111317213,-84.5300072785,301.125,0.495616,0.0,0.0,0.0,0.335241,0.0,0.0,0.0,2.6569,2
1629387414219973029,126297,1629387414200000048,gpsRover,1,3,33.9111317092,-84.530007292,301.131,0.495616,0.0,0.0,0.0,0.335241,0.0,0.0,0.0,2.6569,2
1629387414269845413,126298,1629387414250000000,gpsRover,1,3,33.9111316903,-84.5300073115,301.13,0.495616,0.0,0.0,0.0,0.335241,0.0,0.0,0.0,2.6569,2
1629387414320921859,126299,1629387414299999952,gpsRover,1,3,33.9111316585,-84.5300073042,301.132,0.495616,0.0,0.0,0.0,0.335241,0.0,0.0,0.0,2.6569,2
1629387414369814743,126300,1629387414349999905,gpsRover,1,3,33.9111316692,-84.5300072932,301.136,0.495616,0.0,0.0,0.0,0.335241,0.0,0.0,0.0,2.6569,2
1629387414419694484,126301,1629387414400000095,gpsRover,1,3,33.9111316527,-84.5300073078,301.13,0.495616,0.0,0.0,0.0,0.335241,0.0,0.0,0.0,2.6569,2
1629387414469721523,126302,1629387414450000048,gpsRover,1,3,33.9111316448,-84.5300072998,301.138,0.495616,0.0,0.0,0.0,0.335241,0.0,0.0,0.0,2.6569,2
1629387414523789198,126303,1629387414500000000,gpsRover,1,3,33.9111316697,-84.530007285,301.131,0.495616,0.0,0.0,0.0,0.335241,0.0,0.0,0.0,2.6569,2
1629387414570686612,126304,1629387414549999952,gpsRover,1,3,33.9111316497,-84.5300073098,301.138,0.495616,0.0,0.0,0.0,0.335241,0.0,0.0,0.0,2.6569,2
1629387414620617831,126305,1629387414599999905,gpsRover,1,3,33.9111316412,-84.5300072978,301.13,0.495616,0.0,0.0,0.0,0.335241,0.0,0.0,0.0,2.6569,2
1629387414670607127,126306,1629387414650000095,gpsRover,1,3,33.9111316142,-84.5300072727,301.146,0.495616,0.0,0.0,0.0,0.335241,0.0,0.0,0.0,2.6569,2
1629387414720653785,126307,1629387414700000048,gpsRover,1,3,33.9111316088,-84.530007251,301.147,0.495616,0.0,0.0,0.0,0.335241,0.0,0.0,0.0,2.6569,2
1629387414769561346,126308,1629387414750000000,gpsRover,1,3,33.9111316143,-84.530007235,301.145,0.495616,0.0,0.0,0.0,0.335241,0.0,0.0,0.0,2.6569,2
1629387414820478709,126309,1629387414799999952,gpsRover,1,3,33.9111316025,-84.530007257,301.142,0.495616,0.0,0.0,0.0,0.335241,0.0,0.0,0.0,2.6569,2
1629387414869542670,126310,1629387414849999905,gpsRover,1,3,33.9111315908,-84.5300072422,301.147,0.495616,0.0,0.0,0.0,0.335241,0.0,0.0,0.0,2.6569,2
1629387414920412106,126311,1629387414900000095,gpsRover,1,3,33.9111315842,-84.5300072445,301.142,0.495616,0.0,0.0,0.0,0.335241,0.0,0.0,0.0,2.6569,2
1629387414970406011,126312,1629387414950000048,gpsRover,1,3,33.9111315947,-84.5300072725,301.148,0.495616,0.0,0.0,0.0,0.335241,0.0,0.0,0.0,2.6569,2
1629387415020426786,126313,1629387415000000000,gpsRover,1,3,33.9111315885,-84.530007273,301.152,0.495616,0.0,0.0,0.0,0.335241,0.0,0.0,0.0,2.6569,2
1629387415089419485,126314,1629387415049999952,gpsRover,1,3,33.911131573,-84.5300072722,301.145,0.501264,0.0,0.0,0.0,0.339889,0.0,0.0,0.0,2.6896,2
1629387415120370784,126315,1629387415099999905,gpsRover,1,3,33.9111315603,-84.5300072603,301.15,0.501264,0.0,0.0,0.0,0.339889,0.0,0.0,0.0,2.6896,2
1629387415170349079,126316,1629387415150000095,gpsRover,1,3,33.9111315352,-84.5300072703,301.152,0.501264,0.0,0.0,0.0,0.339889,0.0,0.0,0.0,2.6896,2
1629387415220263452,126317,1629387415200000048,gpsRover,1,3,33.9111315358,-84.530007271,301.144,0.501264,0.0,0.0,0.0,0.339889,0.0,0.0,0.0,2.6896,2
1629387415270277132,126318,1629387415250000000,gpsRover,1,3,33.911131527,-84.5300072948,301.15,0.501264,0.0,0.0,0.0,0.339889,0.0,0.0,0.0,2.6896,2
1629387415320112776,126319,1629387415299999952,gpsRover,1,3,33.9111315207,-84.5300072898,301.142,0.501264,0.0,0.0,0.0,0.339889,0.0,0.0,0.0,2.6896,2
1629387415370196128,126320,1629387415349999905,gpsRover,1,3,33.9111315157,-84.530007283,301.155,0.501264,0.0,0.0,0.0,0.339889,0.0,0.0,0.0,2.6896,2
1629387415420068126,126321,1629387415400000095,gpsRover,1,3,33.911131531,-84.5300072925,301.148,0.501264,0.0,0.0,0.0,0.339889,0.0,0.0,0.0,2.6896,2
1629387415470035349,126322,1629387415450000048,gpsRover,1,3,33.9111315347,-84.5300072742,301.151,0.501264,0.0,0.0,0.0,0.339889,0.0,0.0,0.0,2.6896,2
1629387415524205163,126323,1629387415500000000,gpsRover,1,3,33.9111315238,-84.5300072578,301.157,0.501264,0.0,0.0,0.0,0.339889,0.0,0.0,0.0,2.6896,2
1629387415570232634,126324,1629387415549999952,gpsRover,1,3,33.911131511,-84.530007283,301.145,0.501264,0.0,0.0,0.0,0.339889,0.0,0.0,0.0,2.6896,2
1629387415620021875,126325,1629387415599999905,gpsRover,1,3,33.91113149,-84.53000728,301.147,0.501264,0.0,0.0,0.0,0.339889,0.0,0.0,0.0,2.6896,2
1629387415669905621,126326,1629387415650000095,gpsRover,1,3,33.911131486,-84.5300072612,301.153,0.501264,0.0,0.0,0.0,0.339889,0.0,0.0,0.0,2.6896,2
1629387415719949579,126327,1629387415700000048,gpsRover,1,3,33.9111314943,-84.5300072437,301.157,0.501264,0.0,0.0,0.0,0.339889,0.0,0.0,0.0,2.6896,2
1629387415769890633,126328,1629387415750000000,gpsRover,1,3,33.9111314905,-84.5300072257,301.149,0.501264,0.0,0.0,0.0,0.339889,0.0,0.0,0.0,2.6896,2
1629387415819886477,126329,1629387415799999952,gpsRover,1,3,33.9111314693,-84.5300072395,301.154,0.501264,0.0,0.0,0.0,0.339889,0.0,0.0,0.0,2.6896,2
1629387415869833592,126330,1629387415849999905,gpsRover,1,3,33.9111314768,-84.5300072447,301.144,0.501264,0.0,0.0,0.0,0.339889,0.0,0.0,0.0,2.6896,2
1629387415919819887,126331,1629387415900000095,gpsRover,1,3,33.9111314765,-84.5300072438,301.151,0.501264,0.0,0.0,0.0,0.339889,0.0,0.0,0.0,2.6896,2
1629387415969678782,126332,1629387415950000048,gpsRover,1,3,33.9111314697,-84.5300072317,301.155,0.501264,0.0,0.0,0.0,0.339889,0.0,0.0,0.0,2.6896,2
1629387416020767062,126333,1629387416000000000,gpsRover,1,3,33.9111314662,-84.5300072178,301.154,0.501264,0.0,0.0,0.0,0.339889,0.0,0.0,0.0,2.6896,2
1629387416089837828,126334,1629387416049999952,gpsRover,1,3,33.911131465,-84.530007232,301.151,0.535824,0.0,0.0,0.0,0.362404,0.0,0.0,0.0,2.862864,2
1629387416120758463,126335,1629387416099999905,gpsRover,1,3,33.9111314795,-84.5300072283,301.156,0.535824,0.0,0.0,0.0,0.362404,0.0,0.0,0.0,2.862864,2
