%time,field.header.seq,field.header.stamp,field.header.frame_id,field.status.status,field.status.service,field.latitude,field.longitude,field.altitude,field.position_covariance0,field.position_covariance1,field.position_covariance2,field.position_covariance3,field.position_covariance4,field.position_covariance5,field.position_covariance6,field.position_covariance7,field.position_covariance8,field.position_covariance_type
1562019559569888986,15039,1562019559549999952,gpsRover,2,3,33.7744716168,-84.4053812865,276.805,0.000529,0.0,0.0,0.0,0.000144,0.0,0.0,0.0,0.001089,2
1562019559620870163,15040,1562019559599999905,gpsRover,2,3,33.7744721522,-84.4053828975,276.814,0.000529,0.0,0.0,0.0,0.000144,0.0,0.0,0.0,0.001089,2
1562019559673807444,15041,1562019559650000095,gpsRover,2,3,33.774472665,-84.4053845797,276.815,0.000529,0.0,0.0,0.0,0.000144,0.0,0.0,0.0,0.001089,2
1562019559720772237,15042,1562019559700000048,gpsRover,2,3,33.7744730842,-84.4053861428,276.815,0.000529,0.0,0.0,0.0,0.000144,0.0,0.0,0.0,0.001089,2
1562019559770770559,15043,1562019559750000000,gpsRover,2,3,33.7744735145,-84.4053877408,276.806,0.000529,0.0,0.0,0.0,0.000144,0.0,0.0,0.0,0.001089,2
1562019559819668761,15044,1562019559799999952,gpsRover,2,3,33.7744739293,-84.4053894605,276.819,0.000529,0.0,0.0,0.0,0.000144,0.0,0.0,0.0,0.001089,2
1562019559870714512,15045,1562019559849999905,gpsRover,2,3,33.7744742585,-84.4053911698,276.812,0.000529,0.0,0.0,0.0,0.000144,0.0,0.0,0.0,0.001089,2
1562019559920668623,15046,1562019559900000095,gpsRover,2,3,33.7744745742,-84.4053928833,276.793,0.000529,0.0,0.0,0.0,0.000144,0.0,0.0,0.0,0.001089,2
1562019559970623478,15047,1562019559950000048,gpsRover,2,3,33.774474939,-84.4053944447,276.788,0.000529,0.0,0.0,0.0,0.000144,0.0,0.0,0.0,0.001089,2
1562019560020599740,15048,1562019560000000000,gpsRover,2,3,33.7744751672,-84.4053962075,276.791,0.000529,0.0,0.0,0.0,0.000144,0.0,0.0,0.0,0.001089,2
1562019560080514042,15049,1562019560049999952,gpsRover,2,3,33.774475382,-84.4053979238,276.784,0.000576,0.0,0.0,0.0,0.000169,0.0,0.0,0.0,0.001156,2
1562019560121461629,15050,1562019560099999905,gpsRover,2,3,33.774475582,-84.4053998148,276.815,0.000576,0.0,0.0,0.0,0.000169,0.0,0.0,0.0,0.001156,2
1562019560170397411,15051,1562019560150000095,gpsRover,2,3,33.7744758328,-84.4054014467,276.773,0.000576,0.0,0.0,0.0,0.000169,0.0,0.0,0.0,0.001156,2
1562019560220476172,15052,1562019560200000048,gpsRover,2,3,33.774475967,-84.405403396,276.785,0.000576,0.0,0.0,0.0,0.000169,0.0,0.0,0.0,0.001156,2
1562019560270321532,15053,1562019560250000000,gpsRover,2,3,33.7744759887,-84.4054051332,276.773,0.000576,0.0,0.0,0.0,0.000169,0.0,0.0,0.0,0.001156,2
1562019560320336366,15054,1562019560299999952,gpsRover,2,3,33.7744760497,-84.4054068937,276.786,0.000576,0.0,0.0,0.0,0.000169,0.0,0.0,0.0,0.001156,2
1562019560370311665,15055,1562019560349999905,gpsRover,2,3,33.7744759837,-84.4054086783,276.771,0.000576,0.0,0.0,0.0,0.000169,0.0,0.0,0.0,0.001156,2
1562019560421244946,15056,1562019560400000095,gpsRover,2,3,33.7744758903,-84.4054106393,276.768,0.000576,0.0,0.0,0.0,0.000169,0.0,0.0,0.0,0.001156,2
1562019560470151062,15057,1562019560450000048,gpsRover,2,3,33.7744756103,-84.405412321,276.774,0.000576,0.0,0.0,0.0,0.000169,0.0,0.0,0.0,0.001156,2
1562019560520158672,15058,1562019560500000000,gpsRover,2,3,33.774475124,-84.405414097,276.761,0.000576,0.0,0.0,0.0,0.000169,0.0,0.0,0.0,0.001156,2
1562019560570064558,15059,1562019560549999952,gpsRover,2,3,33.7744748213,-84.405415948,276.762,0.000576,0.0,0.0,0.0,0.000169,0.0,0.0,0.0,0.001156,2
1562019560620105433,15060,1562019560599999905,gpsRover,2,3,33.7744745395,-84.4054179802,276.755,0.000576,0.0,0.0,0.0,0.000169,0.0,0.0,0.0,0.001156,2
1562019560674033319,15061,1562019560650000095,gpsRover,2,3,33.7744740003,-84.4054197892,276.753,0.000576,0.0,0.0,0.0,0.000169,0.0,0.0,0.0,0.001156,2
1562019560719964144,15062,1562019560700000048,gpsRover,2,3,33.7744735085,-84.4054217897,276.767,0.000576,0.0,0.0,0.0,0.000169,0.0,0.0,0.0,0.001156,2
1562019560769933729,15063,1562019560750000000,gpsRover,2,3,33.7744731162,-84.4054235833,276.74,0.000576,0.0,0.0,0.0,0.000169,0.0,0.0,0.0,0.001156,2
1562019560820950938,15064,1562019560799999952,gpsRover,2,3,33.7744724688,-84.4054254763,276.784,0.000576,0.0,0.0,0.0,0.000169,0.0,0.0,0.0,0.001156,2
1562019560869848304,15065,1562019560849999905,gpsRover,2,3,33.7744719575,-84.4054272652,276.726,0.000576,0.0,0.0,0.0,0.000169,0.0,0.0,0.0,0.001156,2
1562019560920834770,15066,1562019560900000095,gpsRover,2,3,33.7744712848,-84.405428977,276.748,0.000576,0.0,0.0,0.0,0.000169,0.0,0.0,0.0,0.001156,2
1562019560969897147,15067,1562019560950000048,gpsRover,2,3,33.7744705872,-84.405430838,276.735,0.000576,0.0,0.0,0.0,0.000169,0.0,0.0,0.0,0.001156,2
1562019561020728763,15068,1562019561000000000,gpsRover,2,3,33.7744697747,-84.4054323257,276.747,0.000576,0.0,0.0,0.0,0.000169,0.0,0.0,0.0,0.001156,2
1562019561080654656,15069,1562019561049999952,gpsRover,2,3,33.7744690188,-84.4054340792,276.748,0.000625,0.0,0.0,0.0,0.000196,0.0,0.0,0.0,0.001444,2
1562019561120707601,15070,1562019561099999905,gpsRover,2,3,33.7744680903,-84.4054355268,276.749,0.000625,0.0,0.0,0.0,0.000196,0.0,0.0,0.0,0.001444,2
1562019561170609966,15071,1562019561150000095,gpsRover,2,3,33.7744672162,-84.4054371303,276.745,0.000625,0.0,0.0,0.0,0.000196,0.0,0.0,0.0,0.001444,2
1562019561220555508,15072,1562019561200000048,gpsRover,2,3,33.7744662723,-84.4054384447,276.728,0.000625,0.0,0.0,0.0,0.000196,0.0,0.0,0.0,0.001444,2
1562019561270691818,15073,1562019561250000000,gpsRover,2,3,33.7744651708,-84.4054400718,276.735,0.000625,0.0,0.0,0.0,0.000196,0.0,0.0,0.0,0.001444,2
1562019561320473980,15074,1562019561299999952,gpsRover,2,3,33.774464097,-84.405441322,276.746,0.000625,0.0,0.0,0.0,0.000196,0.0,0.0,0.0,0.001444,2
1562019561370433358,15075,1562019561349999905,gpsRover,2,3,33.774463143,-84.4054427397,276.729,0.000625,0.0,0.0,0.0,0.000196,0.0,0.0,0.0,0.001444,2
1562019561419422504,15076,1562019561400000095,gpsRover,2,3,33.7744620867,-84.4054440013,276.753,0.000625,0.0,0.0,0.0,0.000196,0.0,0.0,0.0,0.001444,2
1562019561469390148,15077,1562019561450000048,gpsRover,2,3,33.7744610617,-84.4054452547,276.739,0.000625,0.0,0.0,0.0,0.000196,0.0,0.0,0.0,0.001444,2
1562019561519392675,15078,1562019561500000000,gpsRover,2,3,33.7744598458,-84.4054465738,276.752,0.000625,0.0,0.0,0.0,0.000196,0.0,0.0,0.0,0.001444,2
1562019561570391494,15079,1562019561549999952,gpsRover,2,3,33.7744586503,-84.405447812,276.751,0.000625,0.0,0.0,0.0,0.000196,0.0,0.0,0.0,0.001444,2
1562019561620269281,15080,1562019561599999905,gpsRover,2,3,33.7744575342,-84.4054489548,276.749,0.000625,0.0,0.0,0.0,0.000196,0.0,0.0,0.0,0.001444,2
1562019561674214172,15081,1562019561650000095,gpsRover,2,3,33.7744563285,-84.4054501413,276.746,0.000625,0.0,0.0,0.0,0.000196,0.0,0.0,0.0,0.001444,2
1562019561720239343,15082,1562019561700000048,gpsRover,2,3,33.7744551958,-84.4054512953,276.75,0.000625,0.0,0.0,0.0,0.000196,0.0,0.0,0.0,0.001444,2
1562019561770136501,15083,1562019561750000000,gpsRover,2,3,33.7744540262,-84.405452325,276.732,0.000625,0.0,0.0,0.0,0.000196,0.0,0.0,0.0,0.001444,2
1562019561819138147,15084,1562019561799999952,gpsRover,2,3,33.7744527958,-84.4054534623,276.746,0.000625,0.0,0.0,0.0,0.000196,0.0,0.0,0.0,0.001444,2
1562019561870165777,15085,1562019561849999905,gpsRover,2,3,33.7744514882,-84.4054545937,276.756,0.000625,0.0,0.0,0.0,0.000196,0.0,0.0,0.0,0.001444,2
1562019561919121683,15086,1562019561900000095,gpsRover,2,3,33.7744502275,-84.4054554392,276.761,0.000625,0.0,0.0,0.0,0.000196,0.0,0.0,0.0,0.001444,2
1562019561969997650,15087,1562019561950000048,gpsRover,2,3,33.7744489538,-84.4054564532,276.747,0.000625,0.0,0.0,0.0,0.000196,0.0,0.0,0.0,0.001444,2
1562019562020020995,15088,1562019562000000000,gpsRover,2,3,33.7744476138,-84.405457321,276.755,0.000625,0.0,0.0,0.0,0.000196,0.0,0.0,0.0,0.001444,2
1562019562079945312,15089,1562019562049999952,gpsRover,2,3,33.7744462877,-84.4054581708,276.755,0.000484,0.0,0.0,0.0,0.000196,0.0,0.0,0.0,0.001225,2
1562019562120973923,15090,1562019562099999905,gpsRover,2,3,33.7744450067,-84.4054590283,276.749,0.000484,0.0,0.0,0.0,0.000196,0.0,0.0,0.0,0.001225,2
1562019562169931765,15091,1562019562150000095,gpsRover,2,3,33.7744435727,-84.4054598487,276.766,0.000484,0.0,0.0,0.0,0.000196,0.0,0.0,0.0,0.001225,2
1562019562219756027,15092,1562019562200000048,gpsRover,2,3,33.7744423248,-84.4054605658,276.768,0.000484,0.0,0.0,0.0,0.000196,0.0,0.0,0.0,0.001225,2
1562019562269741622,15093,1562019562250000000,gpsRover,2,3,33.7744409288,-84.4054612425,276.787,0.000484,0.0,0.0,0.0,0.000196,0.0,0.0,0.0,0.001225,2
1562019562319679993,15094,1562019562299999952,gpsRover,2,3,33.7744396577,-84.4054616083,276.734,0.000484,0.0,0.0,0.0,0.000196,0.0,0.0,0.0,0.001225,2
1562019562369608341,15095,1562019562349999905,gpsRover,2,3,33.774438171,-84.4054623125,276.768,0.000484,0.0,0.0,0.0,0.000196,0.0,0.0,0.0,0.001225,2
1562019562419577342,15096,1562019562400000095,gpsRover,2,3,33.7744366158,-84.405462889,276.772,0.000484,0.0,0.0,0.0,0.000196,0.0,0.0,0.0,0.001225,2
1562019562470693188,15097,1562019562450000048,gpsRover,2,3,33.7744350583,-84.4054634057,276.771,0.000484,0.0,0.0,0.0,0.000196,0.0,0.0,0.0,0.001225,2
1562019562520481425,15098,1562019562500000000,gpsRover,2,3,33.7744334995,-84.4054638562,276.784,0.000484,0.0,0.0,0.0,0.000196,0.0,0.0,0.0,0.001225,2
1562019562570481251,15099,1562019562549999952,gpsRover,2,3,33.774431973,-84.4054643108,276.767,0.000484,0.0,0.0,0.0,0.000196,0.0,0.0,0.0,0.001225,2
1562019562619427578,15100,1562019562599999905,gpsRover,2,3,33.7744305345,-84.4054645508,276.754,0.000484,0.0,0.0,0.0,0.000196,0.0,0.0,0.0,0.001225,2
1562019562672408051,15101,1562019562650000095,gpsRover,2,3,33.7744290302,-84.4054650285,276.799,0.000484,0.0,0.0,0.0,0.000196,0.0,0.0,0.0,0.001225,2
1562019562720392949,15102,1562019562700000048,gpsRover,2,3,33.7744274673,-84.4054652765,276.793,0.000484,0.0,0.0,0.0,0.000196,0.0,0.0,0.0,0.001225,2
1562019562770409353,15103,1562019562750000000,gpsRover,2,3,33.7744257998,-84.4054655668,276.786,0.000484,0.0,0.0,0.0,0.000196,0.0,0.0,0.0,0.001225,2
1562019562820245743,15104,1562019562799999952,gpsRover,2,3,33.7744240918,-84.4054655408,276.805,0.000484,0.0,0.0,0.0,0.000196,0.0,0.0,0.0,0.001225,2
1562019562870316248,15105,1562019562849999905,gpsRover,2,3,33.7744224143,-84.4054657413,276.818,0.000484,0.0,0.0,0.0,0.000196,0.0,0.0,0.0,0.001225,2
1562019562920307457,15106,1562019562900000095,gpsRover,2,3,33.7744207108,-84.4054655985,276.81,0.000484,0.0,0.0,0.0,0.000196,0.0,0.0,0.0,0.001225,2
1562019562969154591,15107,1562019562950000048,gpsRover,2,3,33.7744190643,-84.4054656455,276.808,0.000484,0.0,0.0,0.0,0.000196,0.0,0.0,0.0,0.001225,2
1562019563019117230,15108,1562019563000000000,gpsRover,2,3,33.7744173557,-84.4054655507,276.818,0.000484,0.0,0.0,0.0,0.000196,0.0,0.0,0.0,0.001225,2
1562019563078111722,15109,1562019563049999952,gpsRover,2,3,33.7744157593,-84.4054652232,276.786,0.000625,0.0,0.0,0.0,0.000196,0.0,0.0,0.0,0.001444,2
1562019563120014342,15110,1562019563099999905,gpsRover,2,3,33.774414091,-84.4054652423,276.834,0.000625,0.0,0.0,0.0,0.000196,0.0,0.0,0.0,0.001444,2
1562019563169983250,15111,1562019563150000095,gpsRover,2,3,33.7744124865,-84.4054648348,276.829,0.000625,0.0,0.0,0.0,0.000196,0.0,0.0,0.0,0.001444,2
1562019563220028423,15112,1562019563200000048,gpsRover,2,3,33.7744109193,-84.4054643477,276.824,0.000625,0.0,0.0,0.0,0.000196,0.0,0.0,0.0,0.001444,2
1562019563269956001,15113,1562019563250000000,gpsRover,2,3,33.7744093508,-84.4054640283,276.842,0.000625,0.0,0.0,0.0,0.000196,0.0,0.0,0.0,0.001444,2
1562019563319859223,15114,1562019563299999952,gpsRover,2,3,33.7744078237,-84.4054634128,276.814,0.000625,0.0,0.0,0.0,0.000196,0.0,0.0,0.0,0.001444,2
1562019563369800309,15115,1562019563349999905,gpsRover,2,3,33.7744063675,-84.4054626565,276.841,0.000625,0.0,0.0,0.0,0.000196,0.0,0.0,0.0,0.001444,2
1562019563420749473,15116,1562019563400000095,gpsRover,2,3,33.7744048598,-84.4054619848,276.829,0.000625,0.0,0.0,0.0,0.000196,0.0,0.0,0.0,0.001444,2
1562019563469769575,15117,1562019563450000048,gpsRover,2,3,33.774403464,-84.405461259,276.827,0.000625,0.0,0.0,0.0,0.000196,0.0,0.0,0.0,0.001444,2
1562019563519679818,15118,1562019563500000000,gpsRover,2,3,33.7744019067,-84.405460378,276.852,0.000625,0.0,0.0,0.0,0.000196,0.0,0.0,0.0,0.001444,2
1562019563569610699,15119,1562019563549999952,gpsRover,2,3,33.7744005542,-84.4054596882,276.832,0.000625,0.0,0.0,0.0,0.000196,0.0,0.0,0.0,0.001444,2
1562019563619663538,15120,1562019563599999905,gpsRover,2,3,33.7743991672,-84.4054588147,276.847,0.000625,0.0,0.0,0.0,0.000196,0.0,0.0,0.0,0.001444,2
1562019563673547438,15121,1562019563650000095,gpsRover,2,3,33.7743978308,-84.4054579785,276.831,0.000625,0.0,0.0,0.0,0.000196,0.0,0.0,0.0,0.001444,2
1562019563720457889,15122,1562019563700000048,gpsRover,2,3,33.7743964273,-84.4054572457,276.889,0.000625,0.0,0.0,0.0,0.000196,0.0,0.0,0.0,0.001444,2
1562019563769465725,15123,1562019563750000000,gpsRover,2,3,33.774395187,-84.405456047,276.833,0.000625,0.0,0.0,0.0,0.000196,0.0,0.0,0.0,0.001444,2
1562019563819512974,15124,1562019563799999952,gpsRover,2,3,33.7743937767,-84.4054551348,276.857,0.000625,0.0,0.0,0.0,0.000196,0.0,0.0,0.0,0.001444,2
1562019563870367644,15125,1562019563849999905,gpsRover,2,3,33.7743925117,-84.405454129,276.864,0.000625,0.0,0.0,0.0,0.000196,0.0,0.0,0.0,0.001444,2
1562019563919386762,15126,1562019563900000095,gpsRover,2,3,33.7743911447,-84.4054531297,276.879,0.000625,0.0,0.0,0.0,0.000196,0.0,0.0,0.0,0.001444,2
1562019563969329809,15127,1562019563950000048,gpsRover,2,3,33.7743899502,-84.4054520803,276.861,0.000625,0.0,0.0,0.0,0.000196,0.0,0.0,0.0,0.001444,2
1562019564020214132,15128,1562019564000000000,gpsRover,2,3,33.7743886358,-84.4054508565,276.854,0.000625,0.0,0.0,0.0,0.000196,0.0,0.0,0.0,0.001444,2
1562019564078303856,15129,1562019564049999952,gpsRover,2,3,33.774387416,-84.4054498995,276.85,0.000784,0.0,0.0,0.0,0.000225,0.0,0.0,0.0,0.0016,2
1562019564120173262,15130,1562019564099999905,gpsRover,2,3,33.7743862045,-84.4054486602,276.851,0.000784,0.0,0.0,0.0,0.000225,0.0,0.0,0.0,0.0016,2
1562019564169138861,15131,1562019564150000095,gpsRover,2,3,33.7743849487,-84.4054475467,276.881,0.000784,0.0,0.0,0.0,0.000225,0.0,0.0,0.0,0.0016,2
1562019564220183747,15132,1562019564200000048,gpsRover,2,3,33.7743838345,-84.405446421,276.873,0.000784,0.0,0.0,0.0,0.000225,0.0,0.0,0.0,0.0016,2
1562019564270043213,15133,1562019564250000000,gpsRover,2,3,33.7743828438,-84.4054451623,276.854,0.000784,0.0,0.0,0.0,0.000225,0.0,0.0,0.0,0.0016,2
1562019564319014025,15134,1562019564299999952,gpsRover,2,3,33.7743816642,-84.4054439467,276.854,0.000784,0.0,0.0,0.0,0.000225,0.0,0.0,0.0,0.0016,2
1562019564369998344,15135,1562019564349999905,gpsRover,2,3,33.7743805772,-84.4054427492,276.872,0.000784,0.0,0.0,0.0,0.000225,0.0,0.0,0.0,0.0016,2
1562019564419990037,15136,1562019564400000095,gpsRover,2,3,33.7743795213,-84.4054414997,276.853,0.000784,0.0,0.0,0.0,0.000225,0.0,0.0,0.0,0.0016,2
1562019564470872735,15137,1562019564450000048,gpsRover,2,3,33.7743784208,-84.4054403657,276.883,0.000784,0.0,0.0,0.0,0.000225,0.0,0.0,0.0,0.0016,2
1562019564519871390,15138,1562019564500000000,gpsRover,2,3,33.7743774087,-84.4054391383,276.889,0.000784,0.0,0.0,0.0,0.000225,0.0,0.0,0.0,0.0016,2
1562019564573795413,15139,1562019564549999952,gpsRover,2,3,33.7743762733,-84.4054379672,276.869,0.000784,0.0,0.0,0.0,0.000225,0.0,0.0,0.0,0.0016,2
1562019564620759917,15140,1562019564599999905,gpsRover,2,3,33.774375282,-84.4054368505,276.892,0.000784,0.0,0.0,0.0,0.000225,0.0,0.0,0.0,0.0016,2
1562019564669787928,15141,1562019564650000095,gpsRover,2,3,33.7743742495,-84.4054356512,276.863,0.000784,0.0,0.0,0.0,0.000225,0.0,0.0,0.0,0.0016,2
1562019564720740139,15142,1562019564700000048,gpsRover,2,3,33.7743732613,-84.4054343992,276.869,0.000784,0.0,0.0,0.0,0.000225,0.0,0.0,0.0,0.0016,2
1562019564770704987,15143,1562019564750000000,gpsRover,2,3,33.7743721685,-84.4054331757,276.855,0.000784,0.0,0.0,0.0,0.000225,0.0,0.0,0.0,0.0016,2
1562019564819767962,15144,1562019564799999952,gpsRover,2,3,33.774371114,-84.4054320495,276.872,0.000784,0.0,0.0,0.0,0.000225,0.0,0.0,0.0,0.0016,2
1562019564869780593,15145,1562019564849999905,gpsRover,2,3,33.7743700275,-84.405430853,276.849,0.000784,0.0,0.0,0.0,0.000225,0.0,0.0,0.0,0.0016,2
1562019564919555106,15146,1562019564900000095,gpsRover,2,3,33.7743689528,-84.4054297105,276.906,0.000784,0.0,0.0,0.0,0.000225,0.0,0.0,0.0,0.0016,2
1562019564969564476,15147,1562019564950000048,gpsRover,2,3,33.7743678943,-84.4054284188,276.889,0.000784,0.0,0.0,0.0,0.000225,0.0,0.0,0.0,0.0016,2
1562019565019632836,15148,1562019565000000000,gpsRover,2,3,33.7743668697,-84.4054272447,276.904,0.000784,0.0,0.0,0.0,0.000225,0.0,0.0,0.0,0.0016,2
1562019565078447986,15149,1562019565049999952,gpsRover,2,3,33.7743659243,-84.4054259512,276.865,0.000676,0.0,0.0,0.0,0.000196,0.0,0.0,0.0,0.001444,2
1562019565120445414,15150,1562019565099999905,gpsRover,2,3,33.7743648312,-84.4054248163,276.87,0.000676,0.0,0.0,0.0,0.000196,0.0,0.0,0.0,0.001444,2
1562019565170417049,15151,1562019565150000095,gpsRover,2,3,33.7743638813,-84.405423587,276.874,0.000676,0.0,0.0,0.0,0.000196,0.0,0.0,0.0,0.001444,2
1562019565219323941,15152,1562019565200000048,gpsRover,2,3,33.7743628705,-84.4054224215,276.891,0.000676,0.0,0.0,0.0,0.000196,0.0,0.0,0.0,0.001444,2
1562019565269334500,15153,1562019565250000000,gpsRover,2,3,33.7743618008,-84.4054212253,276.879,0.000676,0.0,0.0,0.0,0.000196,0.0,0.0,0.0,0.001444,2
1562019565321231567,15154,1562019565299999952,gpsRover,2,3,33.774360854,-84.4054201788,276.896,0.000676,0.0,0.0,0.0,0.000196,0.0,0.0,0.0,0.001444,2
1562019565370190288,15155,1562019565349999905,gpsRover,2,3,33.7743598638,-84.4054189517,276.926,0.000676,0.0,0.0,0.0,0.000196,0.0,0.0,0.0,0.001444,2
1562019565420127888,15156,1562019565400000095,gpsRover,2,3,33.7743588945,-84.4054177528,276.914,0.000676,0.0,0.0,0.0,0.000196,0.0,0.0,0.0,0.001444,2
1562019565470158871,15157,1562019565450000048,gpsRover,2,3,33.7743579247,-84.4054164813,276.883,0.000676,0.0,0.0,0.0,0.000196,0.0,0.0,0.0,0.001444,2
1562019565520092603,15158,1562019565500000000,gpsRover,2,3,33.7743568695,-84.405415367,276.961,0.000676,0.0,0.0,0.0,0.000196,0.0,0.0,0.0,0.001444,2
1562019565570021529,15159,1562019565549999952,gpsRover,2,3,33.7743559943,-84.4054140492,276.899,0.000676,0.0,0.0,0.0,0.000196,0.0,0.0,0.0,0.001444,2
1562019565619076796,15160,1562019565599999905,gpsRover,2,3,33.7743549798,-84.4054128117,276.942,0.000676,0.0,0.0,0.0,0.000196,0.0,0.0,0.0,0.001444,2
1562019565672982102,15161,1562019565650000095,gpsRover,2,3,33.7743540933,-84.4054115247,276.905,0.000676,0.0,0.0,0.0,0.000196,0.0,0.0,0.0,0.001444,2
1562019565719973512,15162,1562019565700000048,gpsRover,2,3,33.7743531405,-84.4054104583,276.92,0.000676,0.0,0.0,0.0,0.000196,0.0,0.0,0.0,0.001444,2
1562019565770949107,15163,1562019565750000000,gpsRover,2,3,33.7743520447,-84.4054091772,276.957,0.000676,0.0,0.0,0.0,0.000196,0.0,0.0,0.0,0.001444,2
1562019565819834903,15164,1562019565799999952,gpsRover,2,3,33.7743511838,-84.405407905,276.957,0.000676,0.0,0.0,0.0,0.000196,0.0,0.0,0.0,0.001444,2
1562019565870786207,15165,1562019565849999905,gpsRover,2,3,33.7743502287,-84.4054066155,276.938,0.000676,0.0,0.0,0.0,0.000196,0.0,0.0,0.0,0.001444,2
1562019565919740643,15166,1562019565900000095,gpsRover,2,3,33.7743493312,-84.4054053842,276.955,0.000676,0.0,0.0,0.0,0.000196,0.0,0.0,0.0,0.001444,2
1562019565969743622,15167,1562019565950000048,gpsRover,2,3,33.774348352,-84.4054040988,276.94,0.000676,0.0,0.0,0.0,0.000196,0.0,0.0,0.0,0.001444,2
1562019566019771170,15168,1562019566000000000,gpsRover,2,3,33.7743473887,-84.4054029298,276.992,0.000676,0.0,0.0,0.0,0.000196,0.0,0.0,0.0,0.001444,2
1562019566078708118,15169,1562019566049999952,gpsRover,2,3,33.774346429,-84.4054015323,276.942,0.0009,0.0,0.0,0.0,0.000225,0.0,0.0,0.0,0.001764,2
1562019566120615417,15170,1562019566099999905,gpsRover,2,3,33.7743455463,-84.4054002167,276.973,0.0009,0.0,0.0,0.0,0.000225,0.0,0.0,0.0,0.001764,2
1562019566169585429,15171,1562019566150000095,gpsRover,2,3,33.7743445005,-84.4053991343,276.984,0.0009,0.0,0.0,0.0,0.000225,0.0,0.0,0.0,0.001764,2
1562019566219620463,15172,1562019566200000048,gpsRover,2,3,33.7743436158,-84.4053977977,276.981,0.0009,0.0,0.0,0.0,0.000225,0.0,0.0,0.0,0.001764,2
1562019566269602789,15173,1562019566250000000,gpsRover,2,3,33.7743426375,-84.4053966357,276.986,0.0009,0.0,0.0,0.0,0.000225,0.0,0.0,0.0,0.001764,2
1562019566319691428,15174,1562019566299999952,gpsRover,2,3,33.7743417598,-84.4053952603,276.985,0.0009,0.0,0.0,0.0,0.000225,0.0,0.0,0.0,0.001764,2
1562019566369503359,15175,1562019566349999905,gpsRover,2,3,33.7743408122,-84.4053941452,276.98,0.0009,0.0,0.0,0.0,0.000225,0.0,0.0,0.0,0.001764,2
1562019566419393552,15176,1562019566400000095,gpsRover,2,3,33.7743399247,-84.4053928767,276.977,0.0009,0.0,0.0,0.0,0.000225,0.0,0.0,0.0,0.001764,2
1562019566470430550,15177,1562019566450000048,gpsRover,2,3,33.7743390177,-84.4053917563,276.998,0.0009,0.0,0.0,0.0,0.000225,0.0,0.0,0.0,0.001764,2
1562019566519360307,15178,1562019566500000000,gpsRover,2,3,33.7743380998,-84.4053904972,276.997,0.0009,0.0,0.0,0.0,0.000225,0.0,0.0,0.0,0.001764,2
1562019566569353656,15179,1562019566549999952,gpsRover,2,3,33.7743372037,-84.4053893503,277.031,0.0009,0.0,0.0,0.0,0.000225,0.0,0.0,0.0,0.001764,2
1562019566619345358,15180,1562019566599999905,gpsRover,2,3,33.7743363,-84.4053881103,277.041,0.0009,0.0,0.0,0.0,0.000225,0.0,0.0,0.0,0.001764,2
1562019566669340752,15181,1562019566650000095,gpsRover,2,3,33.7743354857,-84.4053868848,277.03,0.0009,0.0,0.0,0.0,0.000225,0.0,0.0,0.0,0.001764,2
1562019566720224790,15182,1562019566700000048,gpsRover,2,3,33.7743345995,-84.4053857415,277.003,0.0009,0.0,0.0,0.0,0.000225,0.0,0.0,0.0,0.001764,2
1562019566770250098,15183,1562019566750000000,gpsRover,2,3,33.7743337297,-84.4053845165,277.018,0.0009,0.0,0.0,0.0,0.000225,0.0,0.0,0.0,0.001764,2
1562019566820195165,15184,1562019566799999952,gpsRover,2,3,33.774332859,-84.405383413,277.045,0.0009,0.0,0.0,0.0,0.000225,0.0,0.0,0.0,0.001764,2
1562019566873222637,15185,1562019566849999905,gpsRover,2,3,33.77433213,-84.4053822025,277.02,0.0009,0.0,0.0,0.0,0.000225,0.0,0.0,0.0,0.001764,2
1562019566920096412,15186,1562019566900000095,gpsRover,2,3,33.7743311637,-84.4053811365,277.058,0.0009,0.0,0.0,0.0,0.000225,0.0,0.0,0.0,0.001764,2
1562019566970032764,15187,1562019566950000048,gpsRover,2,3,33.774330381,-84.4053800398,277.062,0.0009,0.0,0.0,0.0,0.000225,0.0,0.0,0.0,0.001764,2
1562019567019953894,15188,1562019567000000000,gpsRover,2,3,33.7743295273,-84.4053789142,277.056,0.0009,0.0,0.0,0.0,0.000225,0.0,0.0,0.0,0.001764,2
1562019567078954245,15189,1562019567049999952,gpsRover,2,3,33.7743287798,-84.4053777728,277.072,0.000841,0.0,0.0,0.0,0.000225,0.0,0.0,0.0,0.001681,2
1562019567119884262,15190,1562019567099999905,gpsRover,2,3,33.7743279797,-84.4053767445,277.069,0.000841,0.0,0.0,0.0,0.000225,0.0,0.0,0.0,0.001681,2
1562019567168867964,15191,1562019567150000095,gpsRover,2,3,33.7743272003,-84.4053756633,277.067,0.000841,0.0,0.0,0.0,0.000225,0.0,0.0,0.0,0.001681,2
1562019567219839457,15192,1562019567200000048,gpsRover,2,3,33.7743264058,-84.4053746817,277.098,0.000841,0.0,0.0,0.0,0.000225,0.0,0.0,0.0,0.001681,2
1562019567269803057,15193,1562019567250000000,gpsRover,2,3,33.7743256827,-84.405373522,277.064,0.000841,0.0,0.0,0.0,0.000225,0.0,0.0,0.0,0.001681,2
1562019567319719620,15194,1562019567299999952,gpsRover,2,3,33.7743248592,-84.4053724272,277.068,0.000841,0.0,0.0,0.0,0.000225,0.0,0.0,0.0,0.001681,2
1562019567369704764,15195,1562019567349999905,gpsRover,2,3,33.7743241532,-84.4053714627,277.077,0.000841,0.0,0.0,0.0,0.000225,0.0,0.0,0.0,0.001681,2
1562019567419753138,15196,1562019567400000095,gpsRover,2,3,33.7743233443,-84.4053705768,277.078,0.000841,0.0,0.0,0.0,0.000225,0.0,0.0,0.0,0.001681,2
1562019567469604092,15197,1562019567450000048,gpsRover,2,3,33.7743226012,-84.4053694227,277.089,0.000841,0.0,0.0,0.0,0.000225,0.0,0.0,0.0,0.001681,2
1562019567519589386,15198,1562019567500000000,gpsRover,2,3,33.7743217713,-84.4053683593,277.087,0.000841,0.0,0.0,0.0,0.000225,0.0,0.0,0.0,0.001681,2
1562019567569562346,15199,1562019567549999952,gpsRover,2,3,33.7743208398,-84.4053673878,277.108,0.000841,0.0,0.0,0.0,0.000225,0.0,0.0,0.0,0.001681,2
1562019567619488647,15200,1562019567599999905,gpsRover,2,3,33.7743199952,-84.4053661102,277.113,0.000841,0.0,0.0,0.0,0.000225,0.0,0.0,0.0,0.001681,2
1562019567673505380,15201,1562019567650000095,gpsRover,2,3,33.774319137,-84.4053650047,277.094,0.000841,0.0,0.0,0.0,0.000225,0.0,0.0,0.0,0.001681,2
1562019567720479967,15202,1562019567700000048,gpsRover,2,3,33.774318158,-84.4053639402,277.141,0.000841,0.0,0.0,0.0,0.000225,0.0,0.0,0.0,0.001681,2
1562019567770378255,15203,1562019567750000000,gpsRover,2,3,33.7743172247,-84.4053626033,277.132,0.000841,0.0,0.0,0.0,0.000225,0.0,0.0,0.0,0.001681,2
1562019567820351596,15204,1562019567799999952,gpsRover,2,3,33.7743162455,-84.4053612923,277.137,0.000841,0.0,0.0,0.0,0.000225,0.0,0.0,0.0,0.001681,2
1562019567870352998,15205,1562019567849999905,gpsRover,2,3,33.7743153067,-84.4053600922,277.141,0.000841,0.0,0.0,0.0,0.000225,0.0,0.0,0.0,0.001681,2
1562019567920258393,15206,1562019567900000095,gpsRover,2,3,33.7743144022,-84.4053587617,277.146,0.000841,0.0,0.0,0.0,0.000225,0.0,0.0,0.0,0.001681,2
1562019567969179399,15207,1562019567950000048,gpsRover,2,3,33.7743134808,-84.4053574137,277.143,0.000841,0.0,0.0,0.0,0.000225,0.0,0.0,0.0,0.001681,2
1562019568020244273,15208,1562019568000000000,gpsRover,2,3,33.774312519,-84.4053561223,277.154,0.000841,0.0,0.0,0.0,0.000225,0.0,0.0,0.0,0.001681,2
1562019568079178391,15209,1562019568049999952,gpsRover,2,3,33.774311667,-84.405354749,277.151,0.000784,0.0,0.0,0.0,0.000196,0.0,0.0,0.0,0.0016,2
1562019568120182885,15210,1562019568099999905,gpsRover,2,3,33.7743107665,-84.4053534215,277.149,0.000784,0.0,0.0,0.0,0.000196,0.0,0.0,0.0,0.0016,2
1562019568170092989,15211,1562019568150000095,gpsRover,2,3,33.7743099367,-84.4053520215,277.157,0.000784,0.0,0.0,0.0,0.000196,0.0,0.0,0.0,0.0016,2
1562019568219014059,15212,1562019568200000048,gpsRover,2,3,33.7743090865,-84.405350612,277.174,0.000784,0.0,0.0,0.0,0.000196,0.0,0.0,0.0,0.0016,2
1562019568270040255,15213,1562019568250000000,gpsRover,2,3,33.7743082682,-84.4053492145,277.167,0.000784,0.0,0.0,0.0,0.000196,0.0,0.0,0.0,0.0016,2
1562019568319905575,15214,1562019568299999952,gpsRover,2,3,33.7743075158,-84.4053478695,277.165,0.000784,0.0,0.0,0.0,0.000196,0.0,0.0,0.0,0.0016,2
1562019568369844341,15215,1562019568349999905,gpsRover,2,3,33.7743066968,-84.4053464278,277.196,0.000784,0.0,0.0,0.0,0.000196,0.0,0.0,0.0,0.0016,2
1562019568419780495,15216,1562019568400000095,gpsRover,2,3,33.7743060082,-84.4053449243,277.176,0.000784,0.0,0.0,0.0,0.000196,0.0,0.0,0.0,0.0016,2
1562019568469774805,15217,1562019568450000048,gpsRover,2,3,33.7743052955,-84.4053434608,277.195,0.000784,0.0,0.0,0.0,0.000196,0.0,0.0,0.0,0.0016,2
1562019568519803815,15218,1562019568500000000,gpsRover,2,3,33.7743045815,-84.4053418877,277.203,0.000784,0.0,0.0,0.0,0.000196,0.0,0.0,0.0,0.0016,2
1562019568569746062,15219,1562019568549999952,gpsRover,2,3,33.7743040175,-84.4053403558,277.164,0.000784,0.0,0.0,0.0,0.000196,0.0,0.0,0.0,0.0016,2
1562019568619680494,15220,1562019568599999905,gpsRover,2,3,33.7743032975,-84.4053388337,277.239,0.000784,0.0,0.0,0.0,0.000196,0.0,0.0,0.0,0.0016,2
1562019568670612804,15221,1562019568650000095,gpsRover,2,3,33.7743028933,-84.405337051,277.248,0.000784,0.0,0.0,0.0,0.000196,0.0,0.0,0.0,0.0016,2
1562019568719606485,15222,1562019568700000048,gpsRover,2,3,33.7743023022,-84.4053354547,277.238,0.000784,0.0,0.0,0.0,0.000196,0.0,0.0,0.0,0.0016,2
1562019568773553958,15223,1562019568750000000,gpsRover,2,3,33.7743017578,-84.4053336507,277.247,0.000784,0.0,0.0,0.0,0.000196,0.0,0.0,0.0,0.0016,2
1562019568820494149,15224,1562019568799999952,gpsRover,2,3,33.7743012182,-84.4053320848,277.267,0.000784,0.0,0.0,0.0,0.000196,0.0,0.0,0.0,0.0016,2
1562019568869462049,15225,1562019568849999905,gpsRover,2,3,33.7743007725,-84.4053303482,277.256,0.000784,0.0,0.0,0.0,0.000196,0.0,0.0,0.0,0.0016,2
1562019568919493215,15226,1562019568900000095,gpsRover,2,3,33.774300394,-84.405328644,277.276,0.000784,0.0,0.0,0.0,0.000196,0.0,0.0,0.0,0.0016,2
1562019568970359468,15227,1562019568950000048,gpsRover,2,3,33.7743000618,-84.4053269532,277.268,0.000784,0.0,0.0,0.0,0.000196,0.0,0.0,0.0,0.0016,2
1562019569020356704,15228,1562019569000000000,gpsRover,2,3,33.7742997355,-84.405325303,277.282,0.000784,0.0,0.0,0.0,0.000196,0.0,0.0,0.0,0.0016,2
1562019569079309707,15229,1562019569049999952,gpsRover,2,3,33.7742996128,-84.4053235835,277.268,0.000841,0.0,0.0,0.0,0.000225,0.0,0.0,0.0,0.001764,2
1562019569120267344,15230,1562019569099999905,gpsRover,2,3,33.774299371,-84.4053218333,277.292,0.000841,0.0,0.0,0.0,0.000225,0.0,0.0,0.0,0.001764,2
1562019569169223233,15231,1562019569150000095,gpsRover,2,3,33.7742992218,-84.4053202075,277.282,0.000841,0.0,0.0,0.0,0.000225,0.0,0.0,0.0,0.001764,2
1562019569220208203,15232,1562019569200000048,gpsRover,2,3,33.7742991363,-84.405318294,277.3,0.000841,0.0,0.0,0.0,0.000225,0.0,0.0,0.0,0.001764,2
1562019569270129835,15233,1562019569250000000,gpsRover,2,3,33.7742991673,-84.4053166043,277.294,0.000841,0.0,0.0,0.0,0.000225,0.0,0.0,0.0,0.001764,2
1562019569321075275,15234,1562019569299999952,gpsRover,2,3,33.7742991528,-84.4053147642,277.332,0.000841,0.0,0.0,0.0,0.000225,0.0,0.0,0.0,0.001764,2
1562019569370093806,15235,1562019569349999905,gpsRover,2,3,33.774299086,-84.4053130042,277.301,0.000841,0.0,0.0,0.0,0.000225,0.0,0.0,0.0,0.001764,2
1562019569420036785,15236,1562019569400000095,gpsRover,2,3,33.7742991005,-84.4053113668,277.327,0.000841,0.0,0.0,0.0,0.000225,0.0,0.0,0.0,0.001764,2
1562019569469987117,15237,1562019569450000048,gpsRover,2,3,33.774299221,-84.4053094507,277.304,0.000841,0.0,0.0,0.0,0.000225,0.0,0.0,0.0,0.001764,2
1562019569518974864,15238,1562019569500000000,gpsRover,2,3,33.7742993757,-84.4053078602,277.309,0.000841,0.0,0.0,0.0,0.000225,0.0,0.0,0.0,0.001764,2
1562019569570935731,15239,1562019569549999952,gpsRover,2,3,33.7742994895,-84.4053059522,277.334,0.000841,0.0,0.0,0.0,0.000225,0.0,0.0,0.0,0.001764,2
1562019569619891662,15240,1562019569599999905,gpsRover,2,3,33.774299706,-84.405304368,277.323,0.000841,0.0,0.0,0.0,0.000225,0.0,0.0,0.0,0.001764,2
1562019569673811536,15241,1562019569650000095,gpsRover,2,3,33.77429992,-84.4053026122,277.339,0.000841,0.0,0.0,0.0,0.000225,0.0,0.0,0.0,0.001764,2
1562019569720721394,15242,1562019569700000048,gpsRover,2,3,33.7743000768,-84.4053009315,277.308,0.000841,0.0,0.0,0.0,0.000225,0.0,0.0,0.0,0.001764,2
1562019569769816637,15243,1562019569750000000,gpsRover,2,3,33.7743002338,-84.405299217,277.333,0.000841,0.0,0.0,0.0,0.000225,0.0,0.0,0.0,0.001764,2
1562019569820678870,15244,1562019569799999952,gpsRover,2,3,33.774300603,-84.4052975917,277.341,0.000841,0.0,0.0,0.0,0.000225,0.0,0.0,0.0,0.001764,2
1562019569870641094,15245,1562019569849999905,gpsRover,2,3,33.7743008252,-84.4052955062,277.311,0.000841,0.0,0.0,0.0,0.000225,0.0,0.0,0.0,0.001764,2
1562019569920563300,15246,1562019569900000095,gpsRover,2,3,33.774301139,-84.4052935903,277.349,0.000841,0.0,0.0,0.0,0.000225,0.0,0.0,0.0,0.001764,2
1562019569970513397,15247,1562019569950000048,gpsRover,2,3,33.774301726,-84.4052917873,277.353,0.000841,0.0,0.0,0.0,0.000225,0.0,0.0,0.0,0.001764,2
1562019570020457939,15248,1562019570000000000,gpsRover,2,3,33.7743021133,-84.4052898837,277.346,0.000841,0.0,0.0,0.0,0.000225,0.0,0.0,0.0,0.001764,2
1562019570079462134,15249,1562019570049999952,gpsRover,2,3,33.7743026805,-84.4052880518,277.353,0.000961,0.0,0.0,0.0,0.000225,0.0,0.0,0.0,0.001681,2
1562019570120526831,15250,1562019570099999905,gpsRover,2,3,33.774303256,-84.4052864313,277.362,0.000961,0.0,0.0,0.0,0.000225,0.0,0.0,0.0,0.001681,2
1562019570170388010,15251,1562019570150000095,gpsRover,2,3,33.7743039647,-84.4052844878,277.355,0.000961,0.0,0.0,0.0,0.000225,0.0,0.0,0.0,0.001681,2
1562019570220339921,15252,1562019570200000048,gpsRover,2,3,33.7743045862,-84.4052827843,277.362,0.000961,0.0,0.0,0.0,0.000225,0.0,0.0,0.0,0.001681,2
1562019570270304916,15253,1562019570250000000,gpsRover,2,3,33.7743053645,-84.4052810703,277.366,0.000961,0.0,0.0,0.0,0.000225,0.0,0.0,0.0,0.001681,2
1562019570320239389,15254,1562019570299999952,gpsRover,2,3,33.7743062672,-84.4052794342,277.369,0.000961,0.0,0.0,0.0,0.000225,0.0,0.0,0.0,0.001681,2
1562019570370258792,15255,1562019570349999905,gpsRover,2,3,33.7743070668,-84.4052777113,277.376,0.000961,0.0,0.0,0.0,0.000225,0.0,0.0,0.0,0.001681,2
1562019570420206092,15256,1562019570400000095,gpsRover,2,3,33.7743079147,-84.4052762057,277.387,0.000961,0.0,0.0,0.0,0.000225,0.0,0.0,0.0,0.001681,2
1562019570470172597,15257,1562019570450000048,gpsRover,2,3,33.7743088175,-84.4052745278,277.378,0.000961,0.0,0.0,0.0,0.000225,0.0,0.0,0.0,0.001681,2
1562019570520172780,15258,1562019570500000000,gpsRover,2,3,33.7743098103,-84.4052730022,277.354,0.000961,0.0,0.0,0.0,0.000225,0.0,0.0,0.0,0.001681,2
1562019570570069430,15259,1562019570549999952,gpsRover,2,3,33.7743107232,-84.4052714782,277.389,0.000961,0.0,0.0,0.0,0.000225,0.0,0.0,0.0,0.001681,2
1562019570620997072,15260,1562019570599999905,gpsRover,2,3,33.7743116332,-84.4052700568,277.382,0.000961,0.0,0.0,0.0,0.000225,0.0,0.0,0.0,0.001681,2
1562019570673996088,15261,1562019570650000095,gpsRover,2,3,33.7743126148,-84.4052686457,277.396,0.000961,0.0,0.0,0.0,0.000225,0.0,0.0,0.0,0.001681,2
1562019570720967918,15262,1562019570700000048,gpsRover,2,3,33.7743139153,-84.4052675152,277.339,0.000961,0.0,0.0,0.0,0.000225,0.0,0.0,0.0,0.001681,2
1562019570770947189,15263,1562019570750000000,gpsRover,2,3,33.774315016,-84.4052660975,277.346,0.000961,0.0,0.0,0.0,0.000225,0.0,0.0,0.0,0.001681,2
1562019570820843099,15264,1562019570799999952,gpsRover,2,3,33.7743160472,-84.4052648657,277.344,0.000961,0.0,0.0,0.0,0.000225,0.0,0.0,0.0,0.001681,2
1562019570870887046,15265,1562019570849999905,gpsRover,2,3,33.774317026,-84.4052636325,277.343,0.000961,0.0,0.0,0.0,0.000225,0.0,0.0,0.0,0.001681,2
1562019570920722295,15266,1562019570900000095,gpsRover,2,3,33.774318183,-84.4052623307,277.363,0.000961,0.0,0.0,0.0,0.000225,0.0,0.0,0.0,0.001681,2
1562019570970716863,15267,1562019570950000048,gpsRover,2,3,33.7743193195,-84.4052613177,277.356,0.000961,0.0,0.0,0.0,0.000225,0.0,0.0,0.0,0.001681,2
1562019571020778249,15268,1562019571000000000,gpsRover,2,3,33.7743204018,-84.4052600908,277.333,0.000961,0.0,0.0,0.0,0.000225,0.0,0.0,0.0,0.001681,2
1562019571079679321,15269,1562019571049999952,gpsRover,2,3,33.7743215717,-84.4052590602,277.368,0.001089,0.0,0.0,0.0,0.0004,0.0,0.0,0.0,0.002704,2
1562019571121676526,15270,1562019571099999905,gpsRover,2,3,33.77432264,-84.4052579423,277.368,0.001089,0.0,0.0,0.0,0.0004,0.0,0.0,0.0,0.002704,2
1562019571170600164,15271,1562019571150000095,gpsRover,2,3,33.7743237703,-84.4052569372,277.372,0.001089,0.0,0.0,0.0,0.0004,0.0,0.0,0.0,0.002704,2
1562019571220639891,15272,1562019571200000048,gpsRover,2,3,33.7743249175,-84.4052559895,277.368,0.001089,0.0,0.0,0.0,0.0004,0.0,0.0,0.0,0.002704,2
1562019571271510655,15273,1562019571250000000,gpsRover,2,3,33.774326004,-84.4052550147,277.373,0.001089,0.0,0.0,0.0,0.0004,0.0,0.0,0.0,0.002704,2
1562019571320475796,15274,1562019571299999952,gpsRover,2,3,33.7743271565,-84.4052541152,277.406,0.001089,0.0,0.0,0.0,0.0004,0.0,0.0,0.0,0.002704,2
1562019571370438832,15275,1562019571349999905,gpsRover,2,3,33.774328297,-84.40525313,277.373,0.001089,0.0,0.0,0.0,0.0004,0.0,0.0,0.0,0.002704,2
1562019571420405774,15276,1562019571400000095,gpsRover,2,3,33.7743294628,-84.4052521293,277.37,0.001089,0.0,0.0,0.0,0.0004,0.0,0.0,0.0,0.002704,2
1562019571470367054,15277,1562019571450000048,gpsRover,2,3,33.7743306102,-84.4052513165,277.391,0.001089,0.0,0.0,0.0,0.0004,0.0,0.0,0.0,0.002704,2
1562019571520268229,15278,1562019571500000000,gpsRover,2,3,33.774331808,-84.4052504833,277.378,0.001089,0.0,0.0,0.0,0.0004,0.0,0.0,0.0,0.002704,2
1562019571574207157,15279,1562019571549999952,gpsRover,2,3,33.774332959,-84.405249624,277.384,0.001089,0.0,0.0,0.0,0.0004,0.0,0.0,0.0,0.002704,2
1562019571621204965,15280,1562019571599999905,gpsRover,2,3,33.7743342375,-84.4052488267,277.349,0.001089,0.0,0.0,0.0,0.0004,0.0,0.0,0.0,0.002704,2
1562019571670245520,15281,1562019571650000095,gpsRover,2,3,33.7743354362,-84.4052480153,277.362,0.001089,0.0,0.0,0.0,0.0004,0.0,0.0,0.0,0.002704,2
1562019571721154453,15282,1562019571700000048,gpsRover,2,3,33.7743367215,-84.4052471433,277.349,0.001089,0.0,0.0,0.0,0.0004,0.0,0.0,0.0,0.002704,2
1562019571771080833,15283,1562019571750000000,gpsRover,2,3,33.7743379272,-84.4052463947,277.375,0.001089,0.0,0.0,0.0,0.0004,0.0,0.0,0.0,0.002704,2
1562019571820995006,15284,1562019571799999952,gpsRover,2,3,33.774339412,-84.405245411,277.351,0.001089,0.0,0.0,0.0,0.0004,0.0,0.0,0.0,0.002704,2
1562019571870004849,15285,1562019571849999905,gpsRover,2,3,33.7743408138,-84.4052446078,277.348,0.001089,0.0,0.0,0.0,0.0004,0.0,0.0,0.0,0.002704,2
1562019571921036985,15286,1562019571900000095,gpsRover,2,3,33.774342262,-84.405243803,277.352,0.001089,0.0,0.0,0.0,0.0004,0.0,0.0,0.0,0.002704,2
1562019571970842356,15287,1562019571950000048,gpsRover,2,3,33.7743436198,-84.4052431442,277.357,0.001089,0.0,0.0,0.0,0.0004,0.0,0.0,0.0,0.002704,2
1562019572019908973,15288,1562019572000000000,gpsRover,2,3,33.7743450777,-84.4052425263,277.325,0.001089,0.0,0.0,0.0,0.0004,0.0,0.0,0.0,0.002704,2
1562019572079792679,15289,1562019572049999952,gpsRover,2,3,33.7743465258,-84.4052420203,277.343,0.001089,0.0,0.0,0.0,0.000361,0.0,0.0,0.0,0.002704,2
1562019572120800128,15290,1562019572099999905,gpsRover,2,3,33.774348113,-84.405241587,277.35,0.001089,0.0,0.0,0.0,0.000361,0.0,0.0,0.0,0.002704,2
1562019572170770647,15291,1562019572150000095,gpsRover,2,3,33.774349651,-84.4052411198,277.333,0.001089,0.0,0.0,0.0,0.000361,0.0,0.0,0.0,0.002704,2
1562019572220715680,15292,1562019572200000048,gpsRover,2,3,33.7743512267,-84.4052410153,277.347,0.001089,0.0,0.0,0.0,0.000361,0.0,0.0,0.0,0.002704,2
1562019572270611668,15293,1562019572250000000,gpsRover,2,3,33.7743528857,-84.4052406472,277.335,0.001089,0.0,0.0,0.0,0.000361,0.0,0.0,0.0,0.002704,2
1562019572320640044,15294,1562019572299999952,gpsRover,2,3,33.7743544622,-84.405240547,277.349,0.001089,0.0,0.0,0.0,0.000361,0.0,0.0,0.0,0.002704,2
1562019572370629570,15295,1562019572349999905,gpsRover,2,3,33.7743561523,-84.405240402,277.353,0.001089,0.0,0.0,0.0,0.000361,0.0,0.0,0.0,0.002704,2
1562019572420487254,15296,1562019572400000095,gpsRover,2,3,33.7743577257,-84.405240426,277.36,0.001089,0.0,0.0,0.0,0.000361,0.0,0.0,0.0,0.002704,2
1562019572470467463,15297,1562019572450000048,gpsRover,2,3,33.7743593503,-84.4052406032,277.362,0.001089,0.0,0.0,0.0,0.000361,0.0,0.0,0.0,0.002704,2
1562019572520435700,15298,1562019572500000000,gpsRover,2,3,33.7743609825,-84.40524071,277.344,0.001089,0.0,0.0,0.0,0.000361,0.0,0.0,0.0,0.002704,2
1562019572570324590,15299,1562019572549999952,gpsRover,2,3,33.7743626732,-84.4052411308,277.337,0.001089,0.0,0.0,0.0,0.000361,0.0,0.0,0.0,0.002704,2
1562019572620295403,15300,1562019572599999905,gpsRover,2,3,33.7743642365,-84.4052415657,277.336,0.001089,0.0,0.0,0.0,0.000361,0.0,0.0,0.0,0.002704,2
1562019572674270660,15301,1562019572650000095,gpsRover,2,3,33.7743658162,-84.4052420602,277.337,0.001089,0.0,0.0,0.0,0.000361,0.0,0.0,0.0,0.002704,2
1562019572720193293,15302,1562019572700000048,gpsRover,2,3,33.774367443,-84.40524271,277.335,0.001089,0.0,0.0,0.0,0.000361,0.0,0.0,0.0,0.002704,2
1562019572770195369,15303,1562019572750000000,gpsRover,2,3,33.7743689875,-84.4052433387,277.33,0.001089,0.0,0.0,0.0,0.000361,0.0,0.0,0.0,0.002704,2
1562019572820190080,15304,1562019572799999952,gpsRover,2,3,33.7743706177,-84.4052440102,277.32,0.001089,0.0,0.0,0.0,0.000361,0.0,0.0,0.0,0.002704,2
1562019572871142473,15305,1562019572849999905,gpsRover,2,3,33.7743721667,-84.4052446708,277.275,0.001089,0.0,0.0,0.0,0.000361,0.0,0.0,0.0,0.002704,2
1562019572920031527,15306,1562019572900000095,gpsRover,2,3,33.7743735688,-84.4052456732,277.298,0.001089,0.0,0.0,0.0,0.000361,0.0,0.0,0.0,0.002704,2
1562019572970119928,15307,1562019572950000048,gpsRover,2,3,33.774375121,-84.4052464552,277.263,0.001089,0.0,0.0,0.0,0.000361,0.0,0.0,0.0,0.002704,2
1562019573019961241,15308,1562019573000000000,gpsRover,2,3,33.7743765198,-84.405247469,277.28,0.001089,0.0,0.0,0.0,0.000361,0.0,0.0,0.0,0.002704,2
1562019573080010369,15309,1562019573049999952,gpsRover,2,3,33.7743779248,-84.4052484727,277.257,0.001024,0.0,0.0,0.0,0.0004,0.0,0.0,0.0,0.002809,2
1562019573120959736,15310,1562019573099999905,gpsRover,2,3,33.7743793662,-84.4052496442,277.281,0.001024,0.0,0.0,0.0,0.0004,0.0,0.0,0.0,0.002809,2
1562019573169928490,15311,1562019573150000095,gpsRover,2,3,33.7743806827,-84.4052507207,277.245,0.001024,0.0,0.0,0.0,0.0004,0.0,0.0,0.0,0.002809,2
1562019573219869745,15312,1562019573200000048,gpsRover,2,3,33.7743820523,-84.4052518123,277.253,0.001024,0.0,0.0,0.0,0.0004,0.0,0.0,0.0,0.002809,2
1562019573270811627,15313,1562019573250000000,gpsRover,2,3,33.7743833063,-84.4052531325,277.246,0.001024,0.0,0.0,0.0,0.0004,0.0,0.0,0.0,0.002809,2
1562019573319732471,15314,1562019573299999952,gpsRover,2,3,33.774384583,-84.4052545,277.249,0.001024,0.0,0.0,0.0,0.0004,0.0,0.0,0.0,0.002809,2
1562019573370778460,15315,1562019573349999905,gpsRover,2,3,33.7743858763,-84.4052557037,277.25,0.001024,0.0,0.0,0.0,0.0004,0.0,0.0,0.0,0.002809,2
1562019573420620265,15316,1562019573400000095,gpsRover,2,3,33.774387045,-84.4052569302,277.22,0.001024,0.0,0.0,0.0,0.0004,0.0,0.0,0.0,0.002809,2
1562019573470632586,15317,1562019573450000048,gpsRover,2,3,33.7743882998,-84.4052582878,277.239,0.001024,0.0,0.0,0.0,0.0004,0.0,0.0,0.0,0.002809,2
1562019573519632902,15318,1562019573500000000,gpsRover,2,3,33.774389441,-84.4052596017,277.224,0.001024,0.0,0.0,0.0,0.0004,0.0,0.0,0.0,0.002809,2
1562019573569577290,15319,1562019573549999952,gpsRover,2,3,33.7743907185,-84.405260838,277.201,0.001024,0.0,0.0,0.0,0.0004,0.0,0.0,0.0,0.002809,2
1562019573620476971,15320,1562019573599999905,gpsRover,2,3,33.7743918508,-84.4052621608,277.2,0.001024,0.0,0.0,0.0,0.0004,0.0,0.0,0.0,0.002809,2
1562019573673448748,15321,1562019573650000095,gpsRover,2,3,33.7743930138,-84.405263503,277.215,0.001024,0.0,0.0,0.0,0.0004,0.0,0.0,0.0,0.002809,2
1562019573720484775,15322,1562019573700000048,gpsRover,2,3,33.7743941977,-84.4052650023,277.141,0.001024,0.0,0.0,0.0,0.0004,0.0,0.0,0.0,0.002809,2
1562019573770398799,15323,1562019573750000000,gpsRover,2,3,33.7743953513,-84.4052663948,277.138,0.001024,0.0,0.0,0.0,0.0004,0.0,0.0,0.0,0.002809,2
1562019573820453848,15324,1562019573799999952,gpsRover,2,3,33.7743966167,-84.405267584,277.121,0.001024,0.0,0.0,0.0,0.0004,0.0,0.0,0.0,0.002809,2
1562019573870363223,15325,1562019573849999905,gpsRover,2,3,33.774397589,-84.4052690118,277.116,0.001024,0.0,0.0,0.0,0.0004,0.0,0.0,0.0,0.002809,2
1562019573920298137,15326,1562019573900000095,gpsRover,2,3,33.7743987625,-84.405270331,277.144,0.001024,0.0,0.0,0.0,0.0004,0.0,0.0,0.0,0.002809,2
1562019573970215021,15327,1562019573950000048,gpsRover,2,3,33.7743998973,-84.405271614,277.1,0.001024,0.0,0.0,0.0,0.0004,0.0,0.0,0.0,0.002809,2
1562019574020264165,15328,1562019574000000000,gpsRover,2,3,33.7744009827,-84.4052729985,277.124,0.001024,0.0,0.0,0.0,0.0004,0.0,0.0,0.0,0.002809,2
1562019574079172028,15329,1562019574049999952,gpsRover,2,3,33.7744020935,-84.4052742807,277.108,0.001156,0.0,0.0,0.0,0.0004,0.0,0.0,0.0,0.003025,2
1562019574121232941,15330,1562019574099999905,gpsRover,2,3,33.7744032045,-84.4052755672,277.084,0.001156,0.0,0.0,0.0,0.0004,0.0,0.0,0.0,0.003025,2
1562019574171114829,15331,1562019574150000095,gpsRover,2,3,33.7744042367,-84.4052769012,277.097,0.001156,0.0,0.0,0.0,0.0004,0.0,0.0,0.0,0.003025,2
1562019574220088115,15332,1562019574200000048,gpsRover,2,3,33.7744052933,-84.405278193,277.08,0.001156,0.0,0.0,0.0,0.0004,0.0,0.0,0.0,0.003025,2
1562019574270056916,15333,1562019574250000000,gpsRover,2,3,33.7744064163,-84.4052795688,277.086,0.001156,0.0,0.0,0.0,0.0004,0.0,0.0,0.0,0.003025,2
1562019574321010424,15334,1562019574299999952,gpsRover,2,3,33.774407447,-84.4052808413,277.074,0.001156,0.0,0.0,0.0,0.0004,0.0,0.0,0.0,0.003025,2
1562019574369924829,15335,1562019574349999905,gpsRover,2,3,33.7744085057,-84.4052822147,277.075,0.001156,0.0,0.0,0.0,0.0004,0.0,0.0,0.0,0.003025,2
1562019574419967079,15336,1562019574400000095,gpsRover,2,3,33.7744095767,-84.4052834618,277.067,0.001156,0.0,0.0,0.0,0.0004,0.0,0.0,0.0,0.003025,2
1562019574469895360,15337,1562019574450000048,gpsRover,2,3,33.7744106487,-84.4052847832,277.061,0.001156,0.0,0.0,0.0,0.0004,0.0,0.0,0.0,0.003025,2
1562019574520876556,15338,1562019574500000000,gpsRover,2,3,33.7744116258,-84.4052861342,277.067,0.001156,0.0,0.0,0.0,0.0004,0.0,0.0,0.0,0.003025,2
1562019574570794291,15339,1562019574549999952,gpsRover,2,3,33.7744126823,-84.405287408,277.054,0.001156,0.0,0.0,0.0,0.0004,0.0,0.0,0.0,0.003025,2
1562019574619824500,15340,1562019574599999905,gpsRover,2,3,33.7744136945,-84.4052887495,277.055,0.001156,0.0,0.0,0.0,0.0004,0.0,0.0,0.0,0.003025,2
1562019574670732609,15341,1562019574650000095,gpsRover,2,3,33.7744147352,-84.405290063,277.038,0.001156,0.0,0.0,0.0,0.0004,0.0,0.0,0.0,0.003025,2
1562019574719734547,15342,1562019574700000048,gpsRover,2,3,33.7744158002,-84.4052914035,277.048,0.001156,0.0,0.0,0.0,0.0004,0.0,0.0,0.0,0.003025,2
1562019574774687222,15343,1562019574750000000,gpsRover,2,3,33.7744168383,-84.4052927742,277.053,0.001156,0.0,0.0,0.0,0.0004,0.0,0.0,0.0,0.003025,2
1562019574820591407,15344,1562019574799999952,gpsRover,2,3,33.774417798,-84.4052941282,277.038,0.001156,0.0,0.0,0.0,0.0004,0.0,0.0,0.0,0.003025,2
1562019574869599645,15345,1562019574849999905,gpsRover,2,3,33.7744188613,-84.4052954865,277.055,0.001156,0.0,0.0,0.0,0.0004,0.0,0.0,0.0,0.003025,2
1562019574920629357,15346,1562019574900000095,gpsRover,2,3,33.7744197938,-84.4052968087,277.036,0.001156,0.0,0.0,0.0,0.0004,0.0,0.0,0.0,0.003025,2
1562019574970541699,15347,1562019574950000048,gpsRover,2,3,33.7744208295,-84.405298165,277.027,0.001156,0.0,0.0,0.0,0.0004,0.0,0.0,0.0,0.003025,2
1562019575020458694,15348,1562019575000000000,gpsRover,2,3,33.7744217995,-84.4052995113,277.028,0.001156,0.0,0.0,0.0,0.0004,0.0,0.0,0.0,0.003025,2
1562019575079518748,15349,1562019575049999952,gpsRover,2,3,33.774422821,-84.4053008355,277.027,0.001156,0.0,0.0,0.0,0.000441,0.0,0.0,0.0,0.003025,2
1562019575121375840,15350,1562019575099999905,gpsRover,2,3,33.7744237055,-84.405302253,277.027,0.001156,0.0,0.0,0.0,0.000441,0.0,0.0,0.0,0.003025,2
1562019575170377878,15351,1562019575150000095,gpsRover,2,3,33.7744247367,-84.4053035745,277.009,0.001156,0.0,0.0,0.0,0.000441,0.0,0.0,0.0,0.003025,2
1562019575220387335,15352,1562019575200000048,gpsRover,2,3,33.7744256968,-84.4053049223,277.016,0.001156,0.0,0.0,0.0,0.000441,0.0,0.0,0.0,0.003025,2
1562019575270331222,15353,1562019575250000000,gpsRover,2,3,33.7744266825,-84.405306292,277.0,0.001156,0.0,0.0,0.0,0.000441,0.0,0.0,0.0,0.003025,2
1562019575320291976,15354,1562019575299999952,gpsRover,2,3,33.77442761,-84.4053076587,276.98,0.001156,0.0,0.0,0.0,0.000441,0.0,0.0,0.0,0.003025,2
1562019575370238061,15355,1562019575349999905,gpsRover,2,3,33.7744286017,-84.4053089852,276.988,0.001156,0.0,0.0,0.0,0.000441,0.0,0.0,0.0,0.003025,2
1562019575420170936,15356,1562019575400000095,gpsRover,2,3,33.7744295763,-84.4053103655,276.973,0.001156,0.0,0.0,0.0,0.000441,0.0,0.0,0.0,0.003025,2
1562019575471132031,15357,1562019575450000048,gpsRover,2,3,33.7744304652,-84.4053117033,276.985,0.001156,0.0,0.0,0.0,0.000441,0.0,0.0,0.0,0.003025,2
1562019575520176745,15358,1562019575500000000,gpsRover,2,3,33.7744313057,-84.40531319,276.975,0.001156,0.0,0.0,0.0,0.000441,0.0,0.0,0.0,0.003025,2
1562019575570096733,15359,1562019575549999952,gpsRover,2,3,33.774432274,-84.4053144808,276.985,0.001156,0.0,0.0,0.0,0.000441,0.0,0.0,0.0,0.003025,2
1562019575620115490,15360,1562019575599999905,gpsRover,2,3,33.7744331215,-84.4053158883,276.973,0.001156,0.0,0.0,0.0,0.000441,0.0,0.0,0.0,0.003025,2
1562019575674079036,15361,1562019575650000095,gpsRover,2,3,33.7744340867,-84.4053172537,276.946,0.001156,0.0,0.0,0.0,0.000441,0.0,0.0,0.0,0.003025,2
1562019575720917085,15362,1562019575700000048,gpsRover,2,3,33.7744349233,-84.4053186512,276.959,0.001156,0.0,0.0,0.0,0.000441,0.0,0.0,0.0,0.003025,2
1562019575770001767,15363,1562019575750000000,gpsRover,2,3,33.7744357953,-84.4053201575,276.973,0.001156,0.0,0.0,0.0,0.000441,0.0,0.0,0.0,0.003025,2
1562019575819957080,15364,1562019575799999952,gpsRover,2,3,33.7744366707,-84.405321512,276.951,0.001156,0.0,0.0,0.0,0.000441,0.0,0.0,0.0,0.003025,2
1562019575870822666,15365,1562019575849999905,gpsRover,2,3,33.7744375752,-84.4053229195,276.959,0.001156,0.0,0.0,0.0,0.000441,0.0,0.0,0.0,0.003025,2
1562019575919911793,15366,1562019575900000095,gpsRover,2,3,33.7744384193,-84.4053243748,276.953,0.001156,0.0,0.0,0.0,0.000441,0.0,0.0,0.0,0.003025,2
1562019575970797527,15367,1562019575950000048,gpsRover,2,3,33.7744392667,-84.4053257272,276.944,0.001156,0.0,0.0,0.0,0.000441,0.0,0.0,0.0,0.003025,2
1562019576020725391,15368,1562019576000000000,gpsRover,2,3,33.7744401902,-84.4053270443,276.928,0.001156,0.0,0.0,0.0,0.000441,0.0,0.0,0.0,0.003025,2
1562019576079730368,15369,1562019576049999952,gpsRover,2,3,33.7744410337,-84.405328582,276.946,0.001156,0.0,0.0,0.0,0.000441,0.0,0.0,0.0,0.003025,2
1562019576120648228,15370,1562019576099999905,gpsRover,2,3,33.7744419403,-84.4053298328,276.933,0.001156,0.0,0.0,0.0,0.000441,0.0,0.0,0.0,0.003025,2
1562019576169693943,15371,1562019576150000095,gpsRover,2,3,33.7744427782,-84.4053312197,276.922,0.001156,0.0,0.0,0.0,0.000441,0.0,0.0,0.0,0.003025,2
1562019576219647434,15372,1562019576200000048,gpsRover,2,3,33.7744436793,-84.4053326002,276.919,0.001156,0.0,0.0,0.0,0.000441,0.0,0.0,0.0,0.003025,2
1562019576270655346,15373,1562019576250000000,gpsRover,2,3,33.7744445998,-84.4053340022,276.916,0.001156,0.0,0.0,0.0,0.000441,0.0,0.0,0.0,0.003025,2
1562019576320658430,15374,1562019576299999952,gpsRover,2,3,33.7744454313,-84.4053353123,276.891,0.001156,0.0,0.0,0.0,0.000441,0.0,0.0,0.0,0.003025,2
1562019576370541920,15375,1562019576349999905,gpsRover,2,3,33.77444626,-84.4053367918,276.937,0.001156,0.0,0.0,0.0,0.000441,0.0,0.0,0.0,0.003025,2
1562019576420428726,15376,1562019576400000095,gpsRover,2,3,33.7744472992,-84.405337959,276.876,0.001156,0.0,0.0,0.0,0.000441,0.0,0.0,0.0,0.003025,2
1562019576470457413,15377,1562019576450000048,gpsRover,2,3,33.7744480373,-84.4053394235,276.899,0.001156,0.0,0.0,0.0,0.000441,0.0,0.0,0.0,0.003025,2
1562019576520391092,15378,1562019576500000000,gpsRover,2,3,33.774449079,-84.4053406005,276.887,0.001156,0.0,0.0,0.0,0.000441,0.0,0.0,0.0,0.003025,2
1562019576570405934,15379,1562019576549999952,gpsRover,2,3,33.7744498503,-84.4053420105,276.896,0.001156,0.0,0.0,0.0,0.000441,0.0,0.0,0.0,0.003025,2
1562019576620248452,15380,1562019576599999905,gpsRover,2,3,33.7744509168,-84.4053433237,276.868,0.001156,0.0,0.0,0.0,0.000441,0.0,0.0,0.0,0.003025,2
1562019576670341816,15381,1562019576650000095,gpsRover,2,3,33.7744518292,-84.4053448118,276.884,0.001156,0.0,0.0,0.0,0.000441,0.0,0.0,0.0,0.003025,2
1562019576720287787,15382,1562019576700000048,gpsRover,2,3,33.7744527817,-84.4053461857,276.872,0.001156,0.0,0.0,0.0,0.000441,0.0,0.0,0.0,0.003025,2
1562019576774204603,15383,1562019576750000000,gpsRover,2,3,33.7744536758,-84.4053474525,276.856,0.001156,0.0,0.0,0.0,0.000441,0.0,0.0,0.0,0.003025,2
1562019576820146827,15384,1562019576799999952,gpsRover,2,3,33.7744547053,-84.4053488385,276.845,0.001156,0.0,0.0,0.0,0.000441,0.0,0.0,0.0,0.003025,2
1562019576870157847,15385,1562019576849999905,gpsRover,2,3,33.7744555305,-84.4053502868,276.861,0.001156,0.0,0.0,0.0,0.000441,0.0,0.0,0.0,0.003025,2
1562019576920074620,15386,1562019576900000095,gpsRover,2,3,33.7744564945,-84.4053516877,276.872,0.001156,0.0,0.0,0.0,0.000441,0.0,0.0,0.0,0.003025,2
1562019576970043771,15387,1562019576950000048,gpsRover,2,3,33.7744573655,-84.4053530595,276.856,0.001156,0.0,0.0,0.0,0.000441,0.0,0.0,0.0,0.003025,2
1562019577021030593,15388,1562019577000000000,gpsRover,2,3,33.7744583455,-84.4053544318,276.848,0.001156,0.0,0.0,0.0,0.000441,0.0,0.0,0.0,0.003025,2
1562019577080061628,15389,1562019577049999952,gpsRover,2,3,33.7744591988,-84.4053558558,276.84,0.001156,0.0,0.0,0.0,0.000441,0.0,0.0,0.0,0.003025,2
1562019577120938855,15390,1562019577099999905,gpsRover,2,3,33.7744601103,-84.405357179,276.811,0.001156,0.0,0.0,0.0,0.000441,0.0,0.0,0.0,0.003025,2
1562019577170954314,15391,1562019577150000095,gpsRover,2,3,33.7744609228,-84.405358639,276.833,0.001156,0.0,0.0,0.0,0.000441,0.0,0.0,0.0,0.003025,2
1562019577219868641,15392,1562019577200000048,gpsRover,2,3,33.7744618053,-84.4053600505,276.827,0.001156,0.0,0.0,0.0,0.000441,0.0,0.0,0.0,0.003025,2
1562019577270854289,15393,1562019577250000000,gpsRover,2,3,33.774462605,-84.40536145,276.829,0.001156,0.0,0.0,0.0,0.000441,0.0,0.0,0.0,0.003025,2
1562019577319780030,15394,1562019577299999952,gpsRover,2,3,33.774463386,-84.4053628788,276.811,0.001156,0.0,0.0,0.0,0.000441,0.0,0.0,0.0,0.003025,2
1562019577370719605,15395,1562019577349999905,gpsRover,2,3,33.7744642012,-84.4053642487,276.805,0.001156,0.0,0.0,0.0,0.000441,0.0,0.0,0.0,0.003025,2
1562019577420659416,15396,1562019577400000095,gpsRover,2,3,33.774464944,-84.4053657348,276.823,0.001156,0.0,0.0,0.0,0.000441,0.0,0.0,0.0,0.003025,2
1562019577469748803,15397,1562019577450000048,gpsRover,2,3,33.7744656375,-84.4053671318,276.808,0.001156,0.0,0.0,0.0,0.000441,0.0,0.0,0.0,0.003025,2
1562019577520636129,15398,1562019577500000000,gpsRover,2,3,33.7744663932,-84.4053686225,276.821,0.001156,0.0,0.0,0.0,0.000441,0.0,0.0,0.0,0.003025,2
1562019577570619165,15399,1562019577549999952,gpsRover,2,3,33.7744671045,-84.405370096,276.823,0.001156,0.0,0.0,0.0,0.000441,0.0,0.0,0.0,0.003025,2
1562019577620647856,15400,1562019577599999905,gpsRover,2,3,33.7744677708,-84.4053714138,276.787,0.001156,0.0,0.0,0.0,0.000441,0.0,0.0,0.0,0.003025,2
1562019577670495363,15401,1562019577650000095,gpsRover,2,3,33.7744683852,-84.4053730372,276.798,0.001156,0.0,0.0,0.0,0.000441,0.0,0.0,0.0,0.003025,2
1562019577720505784,15402,1562019577700000048,gpsRover,2,3,33.774469091,-84.4053744782,276.775,0.001156,0.0,0.0,0.0,0.000441,0.0,0.0,0.0,0.003025,2
1562019577774428183,15403,1562019577750000000,gpsRover,2,3,33.7744696982,-84.4053759918,276.793,0.001156,0.0,0.0,0.0,0.000441,0.0,0.0,0.0,0.003025,2
1562019577820420798,15404,1562019577799999952,gpsRover,2,3,33.7744703057,-84.405377428,276.782,0.001156,0.0,0.0,0.0,0.000441,0.0,0.0,0.0,0.003025,2
1562019577870365301,15405,1562019577849999905,gpsRover,2,3,33.7744708487,-84.4053790782,276.778,0.001156,0.0,0.0,0.0,0.000441,0.0,0.0,0.0,0.003025,2
1562019577920281319,15406,1562019577900000095,gpsRover,2,3,33.7744714295,-84.4053806563,276.766,0.001156,0.0,0.0,0.0,0.000441,0.0,0.0,0.0,0.003025,2
1562019577970193102,15407,1562019577950000048,gpsRover,2,3,33.7744720017,-84.4053822305,276.761,0.001156,0.0,0.0,0.0,0.000441,0.0,0.0,0.0,0.003025,2
1562019578020230277,15408,1562019578000000000,gpsRover,2,3,33.774472439,-84.405383939,276.764,0.001156,0.0,0.0,0.0,0.000441,0.0,0.0,0.0,0.003025,2
1562019578080194708,15409,1562019578049999952,gpsRover,2,3,33.7744729628,-84.4053854457,276.77,0.001156,0.0,0.0,0.0,0.000441,0.0,0.0,0.0,0.003136,2
1562019578121171245,15410,1562019578099999905,gpsRover,2,3,33.7744734362,-84.4053870918,276.79,0.001156,0.0,0.0,0.0,0.000441,0.0,0.0,0.0,0.003136,2
1562019578170086281,15411,1562019578150000095,gpsRover,2,3,33.7744738813,-84.405389,276.779,0.001156,0.0,0.0,0.0,0.000441,0.0,0.0,0.0,0.003136,2
1562019578221003614,15412,1562019578200000048,gpsRover,2,3,33.7744745537,-84.4053906535,276.767,0.001156,0.0,0.0,0.0,0.000441,0.0,0.0,0.0,0.003136,2
1562019578270009427,15413,1562019578250000000,gpsRover,2,3,33.7744747902,-84.4053923622,276.738,0.001156,0.0,0.0,0.0,0.000441,0.0,0.0,0.0,0.003136,2
1562019578320912630,15414,1562019578299999952,gpsRover,2,3,33.7744751828,-84.4053941837,276.754,0.001156,0.0,0.0,0.0,0.000441,0.0,0.0,0.0,0.003136,2
1562019578370897684,15415,1562019578349999905,gpsRover,2,3,33.774475368,-84.405395928,276.773,0.001156,0.0,0.0,0.0,0.000441,0.0,0.0,0.0,0.003136,2
1562019578419901496,15416,1562019578400000095,gpsRover,2,3,33.7744754605,-84.40539761,276.747,0.001156,0.0,0.0,0.0,0.000441,0.0,0.0,0.0,0.003136,2
1562019578470808046,15417,1562019578450000048,gpsRover,2,3,33.774475665,-84.4053994707,276.741,0.001156,0.0,0.0,0.0,0.000441,0.0,0.0,0.0,0.003136,2
1562019578519874377,15418,1562019578500000000,gpsRover,2,3,33.7744759535,-84.4054012825,276.705,0.001156,0.0,0.0,0.0,0.000441,0.0,0.0,0.0,0.003136,2
1562019578570768507,15419,1562019578549999952,gpsRover,2,3,33.7744760643,-84.405403061,276.728,0.001156,0.0,0.0,0.0,0.000441,0.0,0.0,0.0,0.003136,2
1562019578620728044,15420,1562019578599999905,gpsRover,2,3,33.7744758368,-84.4054048663,276.717,0.001156,0.0,0.0,0.0,0.000441,0.0,0.0,0.0,0.003136,2
1562019578670707438,15421,1562019578650000095,gpsRover,2,3,33.7744758642,-84.4054066748,276.756,0.001156,0.0,0.0,0.0,0.000441,0.0,0.0,0.0,0.003136,2
1562019578721827562,15422,1562019578700000048,gpsRover,2,3,33.7744757635,-84.4054083945,276.745,0.001156,0.0,0.0,0.0,0.000441,0.0,0.0,0.0,0.003136,2
1562019578774627137,15423,1562019578750000000,gpsRover,2,3,33.7744756627,-84.405410302,276.735,0.001156,0.0,0.0,0.0,0.000441,0.0,0.0,0.0,0.003136,2
1562019578820623184,15424,1562019578799999952,gpsRover,2,3,33.7744754878,-84.4054121992,276.733,0.001156,0.0,0.0,0.0,0.000441,0.0,0.0,0.0,0.003136,2
1562019578870478637,15425,1562019578849999905,gpsRover,2,3,33.7744751418,-84.4054139238,276.742,0.001156,0.0,0.0,0.0,0.000441,0.0,0.0,0.0,0.003136,2
1562019578920442575,15426,1562019578900000095,gpsRover,2,3,33.774474816,-84.4054157743,276.75,0.001156,0.0,0.0,0.0,0.000441,0.0,0.0,0.0,0.003136,2
1562019578971371971,15427,1562019578950000048,gpsRover,2,3,33.7744745825,-84.4054176263,276.713,0.001156,0.0,0.0,0.0,0.000441,0.0,0.0,0.0,0.003136,2
1562019579020358087,15428,1562019579000000000,gpsRover,2,3,33.7744741812,-84.4054195262,276.762,0.001156,0.0,0.0,0.0,0.000441,0.0,0.0,0.0,0.003136,2
1562019579079401956,15429,1562019579049999952,gpsRover,2,3,33.7744736392,-84.4054212338,276.704,0.001296,0.0,0.0,0.0,0.000441,0.0,0.0,0.0,0.003249,2
1562019579120324609,15430,1562019579099999905,gpsRover,2,3,33.7744732232,-84.405423413,276.74,0.001296,0.0,0.0,0.0,0.000441,0.0,0.0,0.0,0.003249,2
1562019579170269694,15431,1562019579150000095,gpsRover,2,3,33.7744726085,-84.4054249073,276.712,0.001296,0.0,0.0,0.0,0.000441,0.0,0.0,0.0,0.003249,2
1562019579220221336,15432,1562019579200000048,gpsRover,2,3,33.7744721598,-84.4054268837,276.721,0.001296,0.0,0.0,0.0,0.000441,0.0,0.0,0.0,0.003249,2
1562019579270237981,15433,1562019579250000000,gpsRover,2,3,33.7744714055,-84.405428514,276.716,0.001296,0.0,0.0,0.0,0.000441,0.0,0.0,0.0,0.003249,2
1562019579320141910,15434,1562019579299999952,gpsRover,2,3,33.7744708455,-84.4054300243,276.676,0.001296,0.0,0.0,0.0,0.000441,0.0,0.0,0.0,0.003249,2
1562019579370060211,15435,1562019579349999905,gpsRover,2,3,33.774470019,-84.4054319508,276.724,0.001296,0.0,0.0,0.0,0.000441,0.0,0.0,0.0,0.003249,2
1562019579420022745,15436,1562019579400000095,gpsRover,2,3,33.774469322,-84.4054333167,276.692,0.001296,0.0,0.0,0.0,0.000441,0.0,0.0,0.0,0.003249,2
1562019579470011629,15437,1562019579450000048,gpsRover,2,3,33.7744685292,-84.4054349962,276.734,0.001296,0.0,0.0,0.0,0.000441,0.0,0.0,0.0,0.003249,2
1562019579520986720,15438,1562019579500000000,gpsRover,2,3,33.774467522,-84.4054363758,276.705,0.001296,0.0,0.0,0.0,0.000441,0.0,0.0,0.0,0.003249,2
1562019579569926365,15439,1562019579549999952,gpsRover,2,3,33.7744666558,-84.4054378563,276.699,0.001296,0.0,0.0,0.0,0.000441,0.0,0.0,0.0,0.003249,2
1562019579620828447,15440,1562019579599999905,gpsRover,2,3,33.7744655723,-84.4054392723,276.714,0.001296,0.0,0.0,0.0,0.000441,0.0,0.0,0.0,0.003249,2
