%time,field.header.seq,field.header.stamp,field.header.frame_id,field.status.status,field.status.service,field.latitude,field.longitude,field.altitude,field.position_covariance0,field.position_covariance1,field.position_covariance2,field.position_covariance3,field.position_covariance4,field.position_covariance5,field.position_covariance6,field.position_covariance7,field.position_covariance8,field.position_covariance_type
1633034047970338472,11971,1633034047950000048,gpsRover,2,3,33.9110935582,-84.5299954723,300.19,4.9e-05,0.0,0.0,0.0,3.6e-05,0.0,0.0,0.0,0.000289,2
1633034048021214923,11972,1633034048000000000,gpsRover,2,3,33.9110935577,-84.5299954602,300.19,4.9e-05,0.0,0.0,0.0,3.6e-05,0.0,0.0,0.0,0.000289,2
1633034048087282836,11973,1633034048049999952,gpsRover,2,3,33.911093564,-84.5299954532,300.191,4.9e-05,0.0,0.0,0.0,3.6e-05,0.0,0.0,0.0,0.000289,2
1633034048123146940,11974,1633034048099999905,gpsRover,2,3,33.9110935822,-84.5299954983,300.186,4.9e-05,0.0,0.0,0.0,3.6e-05,0.0,0.0,0.0,0.000289,2
1633034048171291512,11975,1633034048150000095,gpsRover,2,3,33.9110935692,-84.5299955148,300.189,4.9e-05,0.0,0.0,0.0,3.6e-05,0.0,0.0,0.0,0.000289,2
1633034048221196185,11976,1633034048200000048,gpsRover,2,3,33.9110935865,-84.52999547,300.188,4.9e-05,0.0,0.0,0.0,3.6e-05,0.0,0.0,0.0,0.000289,2
1633034048271069817,11977,1633034048250000000,gpsRover,2,3,33.9110935905,-84.529995444,300.186,4.9e-05,0.0,0.0,0.0,3.6e-05,0.0,0.0,0.0,0.000289,2
1633034048321027621,11978,1633034048299999952,gpsRover,2,3,33.9110935877,-84.5299954675,300.185,4.9e-05,0.0,0.0,0.0,3.6e-05,0.0,0.0,0.0,0.000289,2
1633034048371140289,11979,1633034048349999905,gpsRover,2,3,33.9110935742,-84.5299954552,300.191,4.9e-05,0.0,0.0,0.0,3.6e-05,0.0,0.0,0.0,0.000289,2
1633034048421009346,11980,1633034048400000095,gpsRover,2,3,33.9110935768,-84.5299954235,300.19,4.9e-05,0.0,0.0,0.0,3.6e-05,0.0,0.0,0.0,0.000289,2
1633034048470959036,11981,1633034048450000048,gpsRover,2,3,33.9110935813,-84.5299954268,300.191,4.9e-05,0.0,0.0,0.0,3.6e-05,0.0,0.0,0.0,0.000289,2
1633034048521902375,11982,1633034048500000000,gpsRover,2,3,33.911093593,-84.5299954093,300.186,4.9e-05,0.0,0.0,0.0,3.6e-05,0.0,0.0,0.0,0.000289,2
1633034048570826794,11983,1633034048549999952,gpsRover,2,3,33.9110936025,-84.5299954165,300.186,4.9e-05,0.0,0.0,0.0,3.6e-05,0.0,0.0,0.0,0.000289,2
1633034048621741338,11984,1633034048599999905,gpsRover,2,3,33.9110936108,-84.5299954242,300.184,4.9e-05,0.0,0.0,0.0,3.6e-05,0.0,0.0,0.0,0.000289,2
1633034048671912979,11985,1633034048650000095,gpsRover,2,3,33.911093617,-84.5299954123,300.182,4.9e-05,0.0,0.0,0.0,3.6e-05,0.0,0.0,0.0,0.000289,2
1633034048724656572,11986,1633034048700000048,gpsRover,2,3,33.9110936165,-84.5299954242,300.186,4.9e-05,0.0,0.0,0.0,3.6e-05,0.0,0.0,0.0,0.000289,2
1633034048771607917,11987,1633034048750000000,gpsRover,2,3,33.9110936407,-84.5299954668,300.177,4.9e-05,0.0,0.0,0.0,3.6e-05,0.0,0.0,0.0,0.000289,2
1633034048821757281,11988,1633034048799999952,gpsRover,2,3,33.9110936275,-84.5299954645,300.177,4.9e-05,0.0,0.0,0.0,3.6e-05,0.0,0.0,0.0,0.000289,2
1633034048870847757,11989,1633034048849999905,gpsRover,2,3,33.9110936218,-84.5299954413,300.179,4.9e-05,0.0,0.0,0.0,3.6e-05,0.0,0.0,0.0,0.000289,2
1633034048920480718,11990,1633034048900000095,gpsRover,2,3,33.9110936383,-84.5299954678,300.179,4.9e-05,0.0,0.0,0.0,3.6e-05,0.0,0.0,0.0,0.000289,2
1633034048971138030,11991,1633034048950000048,gpsRover,2,3,33.9110936442,-84.5299954498,300.181,4.9e-05,0.0,0.0,0.0,3.6e-05,0.0,0.0,0.0,0.000289,2
1633034049021417261,11992,1633034049000000000,gpsRover,2,3,33.9110936322,-84.5299954205,300.178,4.9e-05,0.0,0.0,0.0,3.6e-05,0.0,0.0,0.0,0.000289,2
1633034049087437203,11993,1633034049049999952,gpsRover,2,3,33.9110936145,-84.5299954417,300.178,4.9e-05,0.0,0.0,0.0,3.6e-05,0.0,0.0,0.0,0.000289,2
1633034049122570459,11994,1633034049099999905,gpsRover,2,3,33.9110936072,-84.5299954665,300.18,4.9e-05,0.0,0.0,0.0,3.6e-05,0.0,0.0,0.0,0.000289,2
1633034049171412933,11995,1633034049150000095,gpsRover,2,3,33.911093628,-84.5299954647,300.177,4.9e-05,0.0,0.0,0.0,3.6e-05,0.0,0.0,0.0,0.000289,2
1633034049221293444,11996,1633034049200000048,gpsRover,2,3,33.9110936337,-84.5299954695,300.18,4.9e-05,0.0,0.0,0.0,3.6e-05,0.0,0.0,0.0,0.000289,2
1633034049270408259,11997,1633034049250000000,gpsRover,2,3,33.9110936433,-84.5299954772,300.176,4.9e-05,0.0,0.0,0.0,3.6e-05,0.0,0.0,0.0,0.000289,2
1633034049321375213,11998,1633034049299999952,gpsRover,2,3,33.9110936348,-84.5299954727,300.176,4.9e-05,0.0,0.0,0.0,3.6e-05,0.0,0.0,0.0,0.000289,2
1633034049370240015,11999,1633034049349999905,gpsRover,2,3,33.911093633,-84.5299954613,300.176,4.9e-05,0.0,0.0,0.0,3.6e-05,0.0,0.0,0.0,0.000289,2
1633034049422198070,12000,1633034049400000095,gpsRover,2,3,33.9110936438,-84.5299954847,300.178,4.9e-05,0.0,0.0,0.0,3.6e-05,0.0,0.0,0.0,0.000289,2
1633034049471177147,12001,1633034049450000048,gpsRover,2,3,33.9110936595,-84.5299955078,300.178,4.9e-05,0.0,0.0,0.0,3.6e-05,0.0,0.0,0.0,0.000289,2
1633034049520102257,12002,1633034049500000000,gpsRover,2,3,33.91109366,-84.529995506,300.181,4.9e-05,0.0,0.0,0.0,3.6e-05,0.0,0.0,0.0,0.000289,2
1633034049571172143,12003,1633034049549999952,gpsRover,2,3,33.9110936542,-84.5299954757,300.179,4.9e-05,0.0,0.0,0.0,3.6e-05,0.0,0.0,0.0,0.000289,2
1633034049621052346,12004,1633034049599999905,gpsRover,2,3,33.9110936452,-84.5299954415,300.177,4.9e-05,0.0,0.0,0.0,3.6e-05,0.0,0.0,0.0,0.000289,2
1633034049670937943,12005,1633034049650000095,gpsRover,2,3,33.9110936398,-84.5299954608,300.181,4.9e-05,0.0,0.0,0.0,3.6e-05,0.0,0.0,0.0,0.000289,2
1633034049720970433,12006,1633034049700000048,gpsRover,2,3,33.9110936512,-84.5299954782,300.176,4.9e-05,0.0,0.0,0.0,3.6e-05,0.0,0.0,0.0,0.000289,2
1633034049771023432,12007,1633034049750000000,gpsRover,2,3,33.91109364,-84.5299954665,300.18,4.9e-05,0.0,0.0,0.0,3.6e-05,0.0,0.0,0.0,0.000289,2
1633034049824143567,12008,1633034049799999952,gpsRover,2,3,33.911093645,-84.5299954848,300.176,4.9e-05,0.0,0.0,0.0,3.6e-05,0.0,0.0,0.0,0.000289,2
1633034049870891009,12009,1633034049849999905,gpsRover,2,3,33.9110936278,-84.5299954897,300.178,4.9e-05,0.0,0.0,0.0,3.6e-05,0.0,0.0,0.0,0.000289,2
1633034049920870591,12010,1633034049900000095,gpsRover,2,3,33.9110936272,-84.5299954888,300.178,4.9e-05,0.0,0.0,0.0,3.6e-05,0.0,0.0,0.0,0.000289,2
1633034049970764726,12011,1633034049950000048,gpsRover,2,3,33.9110936093,-84.529995494,300.183,4.9e-05,0.0,0.0,0.0,3.6e-05,0.0,0.0,0.0,0.000289,2
1633034050021832366,12012,1633034050000000000,gpsRover,2,3,33.9110936208,-84.5299955033,300.181,4.9e-05,0.0,0.0,0.0,3.6e-05,0.0,0.0,0.0,0.000289,2
1633034050087682724,12013,1633034050049999952,gpsRover,2,3,33.9110936268,-84.5299955152,300.179,4.9e-05,0.0,0.0,0.0,3.6e-05,0.0,0.0,0.0,0.000289,2
1633034050122767141,12014,1633034050099999905,gpsRover,2,3,33.911093612,-84.5299955192,300.181,4.9e-05,0.0,0.0,0.0,3.6e-05,0.0,0.0,0.0,0.000289,2
1633034050170632275,12015,1633034050150000095,gpsRover,2,3,33.9110936215,-84.5299954807,300.178,4.9e-05,0.0,0.0,0.0,3.6e-05,0.0,0.0,0.0,0.000289,2
1633034050220638289,12016,1633034050200000048,gpsRover,2,3,33.9110936163,-84.5299954838,300.176,4.9e-05,0.0,0.0,0.0,3.6e-05,0.0,0.0,0.0,0.000289,2
1633034050270601392,12017,1633034050250000000,gpsRover,2,3,33.9110936118,-84.5299954963,300.18,4.9e-05,0.0,0.0,0.0,3.6e-05,0.0,0.0,0.0,0.000289,2
1633034050320533907,12018,1633034050299999952,gpsRover,2,3,33.9110936167,-84.5299954965,300.177,4.9e-05,0.0,0.0,0.0,3.6e-05,0.0,0.0,0.0,0.000289,2
1633034050371444419,12019,1633034050349999905,gpsRover,2,3,33.9110936142,-84.5299955163,300.174,4.9e-05,0.0,0.0,0.0,3.6e-05,0.0,0.0,0.0,0.000289,2
1633034050420411523,12020,1633034050400000095,gpsRover,2,3,33.911093606,-84.5299955168,300.177,4.9e-05,0.0,0.0,0.0,3.6e-05,0.0,0.0,0.0,0.000289,2
1633034050470417562,12021,1633034050450000048,gpsRover,2,3,33.911093631,-84.5299955043,300.176,4.9e-05,0.0,0.0,0.0,3.6e-05,0.0,0.0,0.0,0.000289,2
1633034050521391882,12022,1633034050500000000,gpsRover,2,3,33.9110936405,-84.5299955028,300.177,4.9e-05,0.0,0.0,0.0,3.6e-05,0.0,0.0,0.0,0.000289,2
1633034050570261270,12023,1633034050549999952,gpsRover,2,3,33.9110936228,-84.5299954873,300.176,4.9e-05,0.0,0.0,0.0,3.6e-05,0.0,0.0,0.0,0.000289,2
1633034050625402980,12024,1633034050599999905,gpsRover,2,3,33.9110936257,-84.5299954845,300.178,4.9e-05,0.0,0.0,0.0,3.6e-05,0.0,0.0,0.0,0.000289,2
1633034050671265241,12025,1633034050650000095,gpsRover,2,3,33.9110936173,-84.5299954928,300.178,4.9e-05,0.0,0.0,0.0,3.6e-05,0.0,0.0,0.0,0.000289,2
1633034050721290878,12026,1633034050700000048,gpsRover,2,3,33.9110936012,-84.529995494,300.178,4.9e-05,0.0,0.0,0.0,3.6e-05,0.0,0.0,0.0,0.000289,2
1633034050771261138,12027,1633034050750000000,gpsRover,2,3,33.911093619,-84.5299954788,300.172,4.9e-05,0.0,0.0,0.0,3.6e-05,0.0,0.0,0.0,0.000289,2
1633034050821216300,12028,1633034050799999952,gpsRover,2,3,33.9110936037,-84.5299954682,300.172,4.9e-05,0.0,0.0,0.0,3.6e-05,0.0,0.0,0.0,0.000289,2
1633034050871121150,12029,1633034050849999905,gpsRover,2,3,33.9110936037,-84.5299954753,300.17,4.9e-05,0.0,0.0,0.0,3.6e-05,0.0,0.0,0.0,0.000289,2
1633034050921202784,12030,1633034050900000095,gpsRover,2,3,33.9110936013,-84.5299954495,300.171,4.9e-05,0.0,0.0,0.0,3.6e-05,0.0,0.0,0.0,0.000289,2
1633034050971074994,12031,1633034050950000048,gpsRover,2,3,33.9110936138,-84.529995445,300.166,4.9e-05,0.0,0.0,0.0,3.6e-05,0.0,0.0,0.0,0.000289,2
1633034051021107959,12032,1633034051000000000,gpsRover,2,3,33.9110935842,-84.5299954412,300.172,4.9e-05,0.0,0.0,0.0,3.6e-05,0.0,0.0,0.0,0.000289,2
1633034051086939858,12033,1633034051049999952,gpsRover,2,3,33.9110935928,-84.5299954193,300.17,3.6e-05,0.0,0.0,0.0,2.5e-05,0.0,0.0,0.0,0.000225,2
1633034051121887744,12034,1633034051099999905,gpsRover,2,3,33.9110936018,-84.5299954417,300.168,3.6e-05,0.0,0.0,0.0,2.5e-05,0.0,0.0,0.0,0.000225,2
1633034051172385478,12035,1633034051150000095,gpsRover,2,3,33.9110935793,-84.5299954462,300.171,3.6e-05,0.0,0.0,0.0,2.5e-05,0.0,0.0,0.0,0.000225,2
1633034051220978036,12036,1633034051200000048,gpsRover,2,3,33.9110935777,-84.529995432,300.167,3.6e-05,0.0,0.0,0.0,2.5e-05,0.0,0.0,0.0,0.000225,2
1633034051271106285,12037,1633034051250000000,gpsRover,2,3,33.9110935953,-84.5299954553,300.167,3.6e-05,0.0,0.0,0.0,2.5e-05,0.0,0.0,0.0,0.000225,2
1633034051320805711,12038,1633034051299999952,gpsRover,2,3,33.9110935857,-84.5299954532,300.17,3.6e-05,0.0,0.0,0.0,2.5e-05,0.0,0.0,0.0,0.000225,2
1633034051370837603,12039,1633034051349999905,gpsRover,2,3,33.9110935815,-84.5299954777,300.171,3.6e-05,0.0,0.0,0.0,2.5e-05,0.0,0.0,0.0,0.000225,2
1633034051420795915,12040,1633034051400000095,gpsRover,2,3,33.9110935967,-84.529995478,300.171,3.6e-05,0.0,0.0,0.0,2.5e-05,0.0,0.0,0.0,0.000225,2
1633034051470660073,12041,1633034051450000048,gpsRover,2,3,33.9110935995,-84.5299954203,300.173,3.6e-05,0.0,0.0,0.0,2.5e-05,0.0,0.0,0.0,0.000225,2
1633034051521810435,12042,1633034051500000000,gpsRover,2,3,33.9110936068,-84.5299954178,300.168,3.6e-05,0.0,0.0,0.0,2.5e-05,0.0,0.0,0.0,0.000225,2
1633034051570630958,12043,1633034051549999952,gpsRover,2,3,33.9110936243,-84.5299953985,300.168,3.6e-05,0.0,0.0,0.0,2.5e-05,0.0,0.0,0.0,0.000225,2
1633034051624812396,12044,1633034051599999905,gpsRover,2,3,33.911093621,-84.5299953875,300.167,3.6e-05,0.0,0.0,0.0,2.5e-05,0.0,0.0,0.0,0.000225,2
1633034051671650902,12045,1633034051650000095,gpsRover,2,3,33.9110936133,-84.5299954285,300.168,3.6e-05,0.0,0.0,0.0,2.5e-05,0.0,0.0,0.0,0.000225,2
1633034051720519459,12046,1633034051700000048,gpsRover,2,3,33.911093617,-84.5299954733,300.171,3.6e-05,0.0,0.0,0.0,2.5e-05,0.0,0.0,0.0,0.000225,2
1633034051770422556,12047,1633034051750000000,gpsRover,2,3,33.911093604,-84.5299954555,300.173,3.6e-05,0.0,0.0,0.0,2.5e-05,0.0,0.0,0.0,0.000225,2
1633034051820535938,12048,1633034051799999952,gpsRover,2,3,33.9110936093,-84.5299954363,300.173,3.6e-05,0.0,0.0,0.0,2.5e-05,0.0,0.0,0.0,0.000225,2
1633034051870506827,12049,1633034051849999905,gpsRover,2,3,33.9110935945,-84.529995448,300.174,3.6e-05,0.0,0.0,0.0,2.5e-05,0.0,0.0,0.0,0.000225,2
1633034051921435139,12050,1633034051900000095,gpsRover,2,3,33.9110935875,-84.529995445,300.174,3.6e-05,0.0,0.0,0.0,2.5e-05,0.0,0.0,0.0,0.000225,2
1633034051970601149,12051,1633034051950000048,gpsRover,2,3,33.9110935893,-84.5299954528,300.175,3.6e-05,0.0,0.0,0.0,2.5e-05,0.0,0.0,0.0,0.000225,2
1633034052021348795,12052,1633034052000000000,gpsRover,2,3,33.9110935945,-84.5299954623,300.172,3.6e-05,0.0,0.0,0.0,2.5e-05,0.0,0.0,0.0,0.000225,2
1633034052087362257,12053,1633034052049999952,gpsRover,2,3,33.9110935935,-84.5299954697,300.178,3.6e-05,0.0,0.0,0.0,2.5e-05,0.0,0.0,0.0,0.000225,2
1633034052122331954,12054,1633034052099999905,gpsRover,2,3,33.9110936203,-84.529995474,300.173,3.6e-05,0.0,0.0,0.0,2.5e-05,0.0,0.0,0.0,0.000225,2
1633034052171640365,12055,1633034052150000095,gpsRover,2,3,33.9110936165,-84.5299955107,300.175,3.6e-05,0.0,0.0,0.0,2.5e-05,0.0,0.0,0.0,0.000225,2
1633034052220258362,12056,1633034052200000048,gpsRover,2,3,33.9110936117,-84.529995507,300.174,3.6e-05,0.0,0.0,0.0,2.5e-05,0.0,0.0,0.0,0.000225,2
1633034052271246957,12057,1633034052250000000,gpsRover,2,3,33.9110935977,-84.5299955052,300.175,3.6e-05,0.0,0.0,0.0,2.5e-05,0.0,0.0,0.0,0.000225,2
1633034052321397173,12058,1633034052299999952,gpsRover,2,3,33.9110936042,-84.5299955,300.172,3.6e-05,0.0,0.0,0.0,2.5e-05,0.0,0.0,0.0,0.000225,2
1633034052371114466,12059,1633034052349999905,gpsRover,2,3,33.9110936108,-84.5299955067,300.173,3.6e-05,0.0,0.0,0.0,2.5e-05,0.0,0.0,0.0,0.000225,2
1633034052421131224,12060,1633034052400000095,gpsRover,2,3,33.9110936168,-84.5299955092,300.175,3.6e-05,0.0,0.0,0.0,2.5e-05,0.0,0.0,0.0,0.000225,2
1633034052470120193,12061,1633034052450000048,gpsRover,2,3,33.9110936032,-84.529995488,300.174,3.6e-05,0.0,0.0,0.0,2.5e-05,0.0,0.0,0.0,0.000225,2
1633034052522015450,12062,1633034052500000000,gpsRover,2,3,33.9110936028,-84.5299954787,300.172,3.6e-05,0.0,0.0,0.0,2.5e-05,0.0,0.0,0.0,0.000225,2
1633034052570983582,12063,1633034052549999952,gpsRover,2,3,33.9110935897,-84.5299954875,300.174,3.6e-05,0.0,0.0,0.0,2.5e-05,0.0,0.0,0.0,0.000225,2
1633034052625173964,12064,1633034052599999905,gpsRover,2,3,33.9110935852,-84.529995462,300.171,3.6e-05,0.0,0.0,0.0,2.5e-05,0.0,0.0,0.0,0.000225,2
1633034052671877072,12065,1633034052650000095,gpsRover,2,3,33.9110936042,-84.5299954643,300.175,3.6e-05,0.0,0.0,0.0,2.5e-05,0.0,0.0,0.0,0.000225,2
1633034052720865671,12066,1633034052700000048,gpsRover,2,3,33.9110936173,-84.5299954675,300.173,3.6e-05,0.0,0.0,0.0,2.5e-05,0.0,0.0,0.0,0.000225,2
1633034052771447256,12067,1633034052750000000,gpsRover,2,3,33.9110936108,-84.5299954517,300.175,3.6e-05,0.0,0.0,0.0,2.5e-05,0.0,0.0,0.0,0.000225,2
1633034052820906106,12068,1633034052799999952,gpsRover,2,3,33.9110936083,-84.5299954737,300.175,3.6e-05,0.0,0.0,0.0,2.5e-05,0.0,0.0,0.0,0.000225,2
1633034052871760270,12069,1633034052849999905,gpsRover,2,3,33.9110935752,-84.5299955713,300.171,3.6e-05,0.0,0.0,0.0,2.5e-05,0.0,0.0,0.0,0.000225,2
1633034052920744564,12070,1633034052900000095,gpsRover,2,3,33.9110935228,-84.5299958117,300.169,3.6e-05,0.0,0.0,0.0,2.5e-05,0.0,0.0,0.0,0.000225,2
1633034052970622501,12071,1633034052950000048,gpsRover,2,3,33.9110934467,-84.5299961757,300.167,3.6e-05,0.0,0.0,0.0,2.5e-05,0.0,0.0,0.0,0.000225,2
1633034053021642050,12072,1633034053000000000,gpsRover,2,3,33.911093334,-84.5299966053,300.169,3.6e-05,0.0,0.0,0.0,2.5e-05,0.0,0.0,0.0,0.000225,2
1633034053087579338,12073,1633034053049999952,gpsRover,2,3,33.9110932315,-84.5299970855,300.175,3.6e-05,0.0,0.0,0.0,2.5e-05,0.0,0.0,0.0,0.000225,2
1633034053122640362,12074,1633034053099999905,gpsRover,2,3,33.9110931502,-84.5299976265,300.176,3.6e-05,0.0,0.0,0.0,2.5e-05,0.0,0.0,0.0,0.000225,2
1633034053171535252,12075,1633034053150000095,gpsRover,2,3,33.9110931048,-84.5299981688,300.183,3.6e-05,0.0,0.0,0.0,2.5e-05,0.0,0.0,0.0,0.000225,2
1633034053221527216,12076,1633034053200000048,gpsRover,2,3,33.9110930722,-84.529998725,300.188,3.6e-05,0.0,0.0,0.0,2.5e-05,0.0,0.0,0.0,0.000225,2
1633034053270576039,12077,1633034053250000000,gpsRover,2,3,33.9110930005,-84.5299992947,300.195,3.6e-05,0.0,0.0,0.0,2.5e-05,0.0,0.0,0.0,0.000225,2
1633034053321526780,12078,1633034053299999952,gpsRover,2,3,33.9110929003,-84.5299998302,300.199,3.6e-05,0.0,0.0,0.0,2.5e-05,0.0,0.0,0.0,0.000225,2
1633034053370437736,12079,1633034053349999905,gpsRover,2,3,33.9110927418,-84.5300003832,300.207,3.6e-05,0.0,0.0,0.0,2.5e-05,0.0,0.0,0.0,0.000225,2
1633034053420372309,12080,1633034053400000095,gpsRover,2,3,33.9110925823,-84.5300010203,300.213,3.6e-05,0.0,0.0,0.0,2.5e-05,0.0,0.0,0.0,0.000225,2
1633034053471288173,12081,1633034053450000048,gpsRover,2,3,33.911092453,-84.5300016772,300.22,3.6e-05,0.0,0.0,0.0,2.5e-05,0.0,0.0,0.0,0.000225,2
1633034053521287915,12082,1633034053500000000,gpsRover,2,3,33.911092273,-84.5300023055,300.227,3.6e-05,0.0,0.0,0.0,2.5e-05,0.0,0.0,0.0,0.000225,2
1633034053571350874,12083,1633034053549999952,gpsRover,2,3,33.9110920747,-84.5300029077,300.238,3.6e-05,0.0,0.0,0.0,2.5e-05,0.0,0.0,0.0,0.000225,2
1633034053625228278,12084,1633034053599999905,gpsRover,2,3,33.911091922,-84.5300034828,300.241,3.6e-05,0.0,0.0,0.0,2.5e-05,0.0,0.0,0.0,0.000225,2
1633034053672214656,12085,1633034053650000095,gpsRover,2,3,33.9110917372,-84.5300040938,300.241,3.6e-05,0.0,0.0,0.0,2.5e-05,0.0,0.0,0.0,0.000225,2
1633034053721122562,12086,1633034053700000048,gpsRover,2,3,33.9110915145,-84.5300047563,300.244,3.6e-05,0.0,0.0,0.0,2.5e-05,0.0,0.0,0.0,0.000225,2
1633034053770121269,12087,1633034053750000000,gpsRover,2,3,33.9110913108,-84.5300054362,300.241,3.6e-05,0.0,0.0,0.0,2.5e-05,0.0,0.0,0.0,0.000225,2
1633034053821090312,12088,1633034053799999952,gpsRover,2,3,33.9110910875,-84.5300060097,300.251,3.6e-05,0.0,0.0,0.0,2.5e-05,0.0,0.0,0.0,0.000225,2
1633034053871008326,12089,1633034053849999905,gpsRover,2,3,33.9110908448,-84.5300064412,300.246,3.6e-05,0.0,0.0,0.0,2.5e-05,0.0,0.0,0.0,0.000225,2
1633034053921027406,12090,1633034053900000095,gpsRover,2,3,33.9110905463,-84.5300068865,300.247,3.6e-05,0.0,0.0,0.0,2.5e-05,0.0,0.0,0.0,0.000225,2
1633034053971504116,12091,1633034053950000048,gpsRover,2,3,33.9110902828,-84.5300073927,300.245,3.6e-05,0.0,0.0,0.0,2.5e-05,0.0,0.0,0.0,0.000225,2
1633034054020940744,12092,1633034054000000000,gpsRover,2,3,33.9110900453,-84.5300079182,300.252,3.6e-05,0.0,0.0,0.0,2.5e-05,0.0,0.0,0.0,0.000225,2
1633034054086855847,12093,1633034054049999952,gpsRover,2,3,33.9110897623,-84.530008433,300.256,4.9e-05,0.0,0.0,0.0,3.6e-05,0.0,0.0,0.0,0.000289,2
1633034054121879161,12094,1633034054099999905,gpsRover,2,3,33.9110894965,-84.5300088727,300.251,4.9e-05,0.0,0.0,0.0,3.6e-05,0.0,0.0,0.0,0.000289,2
1633034054172410217,12095,1633034054150000095,gpsRover,2,3,33.9110892265,-84.5300092897,300.255,4.9e-05,0.0,0.0,0.0,3.6e-05,0.0,0.0,0.0,0.000289,2
1633034054221857157,12096,1633034054200000048,gpsRover,2,3,33.9110889365,-84.530009698,300.253,4.9e-05,0.0,0.0,0.0,3.6e-05,0.0,0.0,0.0,0.000289,2
1633034054270733854,12097,1633034054250000000,gpsRover,2,3,33.911088573,-84.5300100138,300.256,4.9e-05,0.0,0.0,0.0,3.6e-05,0.0,0.0,0.0,0.000289,2
1633034054320659559,12098,1633034054299999952,gpsRover,2,3,33.9110882385,-84.5300103055,300.263,4.9e-05,0.0,0.0,0.0,3.6e-05,0.0,0.0,0.0,0.000289,2
1633034054370647268,12099,1633034054349999905,gpsRover,2,3,33.9110879258,-84.5300105637,300.269,4.9e-05,0.0,0.0,0.0,3.6e-05,0.0,0.0,0.0,0.000289,2
1633034054421679979,12100,1633034054400000095,gpsRover,2,3,33.9110876358,-84.530010788,300.268,4.9e-05,0.0,0.0,0.0,3.6e-05,0.0,0.0,0.0,0.000289,2
1633034054470609102,12101,1633034054450000048,gpsRover,2,3,33.9110873967,-84.530010997,300.27,4.9e-05,0.0,0.0,0.0,3.6e-05,0.0,0.0,0.0,0.000289,2
1633034054520597699,12102,1633034054500000000,gpsRover,2,3,33.9110871625,-84.5300111325,300.267,4.9e-05,0.0,0.0,0.0,3.6e-05,0.0,0.0,0.0,0.000289,2
1633034054571952829,12103,1633034054549999952,gpsRover,2,3,33.9110868397,-84.5300113437,300.277,4.9e-05,0.0,0.0,0.0,3.6e-05,0.0,0.0,0.0,0.000289,2
1633034054624574621,12104,1633034054599999905,gpsRover,2,3,33.9110865895,-84.530011484,300.273,4.9e-05,0.0,0.0,0.0,3.6e-05,0.0,0.0,0.0,0.000289,2
1633034054672782080,12105,1633034054650000095,gpsRover,2,3,33.9110863908,-84.530011608,300.274,4.9e-05,0.0,0.0,0.0,3.6e-05,0.0,0.0,0.0,0.000289,2
1633034054720469883,12106,1633034054700000048,gpsRover,2,3,33.9110862117,-84.530011822,300.28,4.9e-05,0.0,0.0,0.0,3.6e-05,0.0,0.0,0.0,0.000289,2
1633034054772158325,12107,1633034054750000000,gpsRover,2,3,33.9110860197,-84.5300120538,300.269,4.9e-05,0.0,0.0,0.0,3.6e-05,0.0,0.0,0.0,0.000289,2
1633034054820770644,12108,1633034054799999952,gpsRover,2,3,33.9110857973,-84.5300122875,300.272,4.9e-05,0.0,0.0,0.0,3.6e-05,0.0,0.0,0.0,0.000289,2
1633034054872319480,12109,1633034054849999905,gpsRover,2,3,33.911085638,-84.5300124538,300.274,4.9e-05,0.0,0.0,0.0,3.6e-05,0.0,0.0,0.0,0.000289,2
1633034054921237616,12110,1633034054900000095,gpsRover,2,3,33.9110855165,-84.5300126327,300.273,4.9e-05,0.0,0.0,0.0,3.6e-05,0.0,0.0,0.0,0.000289,2
1633034054970224261,12111,1633034054950000048,gpsRover,2,3,33.9110853797,-84.5300127817,300.274,4.9e-05,0.0,0.0,0.0,3.6e-05,0.0,0.0,0.0,0.000289,2
1633034055021214226,12112,1633034055000000000,gpsRover,2,3,33.9110852038,-84.5300129588,300.276,4.9e-05,0.0,0.0,0.0,3.6e-05,0.0,0.0,0.0,0.000289,2
1633034055087122952,12113,1633034055049999952,gpsRover,2,3,33.9110850542,-84.5300131083,300.271,4.9e-05,0.0,0.0,0.0,3.6e-05,0.0,0.0,0.0,0.000289,2
1633034055122077746,12114,1633034055099999905,gpsRover,2,3,33.9110848915,-84.5300132363,300.273,4.9e-05,0.0,0.0,0.0,3.6e-05,0.0,0.0,0.0,0.000289,2
1633034055171021265,12115,1633034055150000095,gpsRover,2,3,33.9110847887,-84.5300133668,300.273,4.9e-05,0.0,0.0,0.0,3.6e-05,0.0,0.0,0.0,0.000289,2
1633034055220963675,12116,1633034055200000048,gpsRover,2,3,33.9110847107,-84.530013459,300.275,4.9e-05,0.0,0.0,0.0,3.6e-05,0.0,0.0,0.0,0.000289,2
1633034055271414493,12117,1633034055250000000,gpsRover,2,3,33.9110846305,-84.5300134948,300.271,4.9e-05,0.0,0.0,0.0,3.6e-05,0.0,0.0,0.0,0.000289,2
1633034055320933326,12118,1633034055299999952,gpsRover,2,3,33.9110845575,-84.5300135832,300.272,4.9e-05,0.0,0.0,0.0,3.6e-05,0.0,0.0,0.0,0.000289,2
1633034055370918944,12119,1633034055349999905,gpsRover,2,3,33.911084503,-84.530013657,300.272,4.9e-05,0.0,0.0,0.0,3.6e-05,0.0,0.0,0.0,0.000289,2
1633034055420900853,12120,1633034055400000095,gpsRover,2,3,33.9110844378,-84.5300137075,300.276,4.9e-05,0.0,0.0,0.0,3.6e-05,0.0,0.0,0.0,0.000289,2
1633034055470912893,12121,1633034055450000048,gpsRover,2,3,33.9110843987,-84.5300137163,300.273,4.9e-05,0.0,0.0,0.0,3.6e-05,0.0,0.0,0.0,0.000289,2
1633034055520783659,12122,1633034055500000000,gpsRover,2,3,33.9110843723,-84.530013725,300.275,4.9e-05,0.0,0.0,0.0,3.6e-05,0.0,0.0,0.0,0.000289,2
1633034055570748684,12123,1633034055549999952,gpsRover,2,3,33.9110843668,-84.5300137283,300.271,4.9e-05,0.0,0.0,0.0,3.6e-05,0.0,0.0,0.0,0.000289,2
1633034055624781882,12124,1633034055599999905,gpsRover,2,3,33.91108437,-84.5300137213,300.269,4.9e-05,0.0,0.0,0.0,3.6e-05,0.0,0.0,0.0,0.000289,2
1633034055671680478,12125,1633034055650000095,gpsRover,2,3,33.9110843327,-84.5300137912,300.265,4.9e-05,0.0,0.0,0.0,3.6e-05,0.0,0.0,0.0,0.000289,2
1633034055720665113,12126,1633034055700000048,gpsRover,2,3,33.9110841907,-84.5300139095,300.262,4.9e-05,0.0,0.0,0.0,3.6e-05,0.0,0.0,0.0,0.000289,2
1633034055770723256,12127,1633034055750000000,gpsRover,2,3,33.9110839102,-84.5300141017,300.262,4.9e-05,0.0,0.0,0.0,3.6e-05,0.0,0.0,0.0,0.000289,2
1633034055820640954,12128,1633034055799999952,gpsRover,2,3,33.9110835973,-84.530014254,300.263,4.9e-05,0.0,0.0,0.0,3.6e-05,0.0,0.0,0.0,0.000289,2
1633034055870625742,12129,1633034055849999905,gpsRover,2,3,33.9110832727,-84.530014384,300.265,4.9e-05,0.0,0.0,0.0,3.6e-05,0.0,0.0,0.0,0.000289,2
1633034055920662724,12130,1633034055900000095,gpsRover,2,3,33.9110829403,-84.5300145217,300.262,4.9e-05,0.0,0.0,0.0,3.6e-05,0.0,0.0,0.0,0.000289,2
1633034055970562241,12131,1633034055950000048,gpsRover,2,3,33.9110825853,-84.5300145837,300.256,4.9e-05,0.0,0.0,0.0,3.6e-05,0.0,0.0,0.0,0.000289,2
1633034056021525571,12132,1633034056000000000,gpsRover,2,3,33.9110822615,-84.5300147743,300.26,4.9e-05,0.0,0.0,0.0,3.6e-05,0.0,0.0,0.0,0.000289,2
1633034056087439792,12133,1633034056049999952,gpsRover,2,3,33.9110819315,-84.5300150543,300.256,4.9e-05,0.0,0.0,0.0,3.6e-05,0.0,0.0,0.0,0.000289,2
1633034056122488832,12134,1633034056099999905,gpsRover,2,3,33.9110815348,-84.5300152983,300.262,4.9e-05,0.0,0.0,0.0,3.6e-05,0.0,0.0,0.0,0.000289,2
1633034056171423906,12135,1633034056150000095,gpsRover,2,3,33.9110811765,-84.5300155037,300.26,4.9e-05,0.0,0.0,0.0,3.6e-05,0.0,0.0,0.0,0.000289,2
1633034056220400775,12136,1633034056200000048,gpsRover,2,3,33.9110808038,-84.5300157417,300.259,4.9e-05,0.0,0.0,0.0,3.6e-05,0.0,0.0,0.0,0.000289,2
1633034056270314259,12137,1633034056250000000,gpsRover,2,3,33.9110803715,-84.5300160008,300.256,4.9e-05,0.0,0.0,0.0,3.6e-05,0.0,0.0,0.0,0.000289,2
1633034056321388564,12138,1633034056299999952,gpsRover,2,3,33.911080001,-84.530016255,300.256,4.9e-05,0.0,0.0,0.0,3.6e-05,0.0,0.0,0.0,0.000289,2
1633034056370298583,12139,1633034056349999905,gpsRover,2,3,33.9110796113,-84.5300164712,300.252,4.9e-05,0.0,0.0,0.0,3.6e-05,0.0,0.0,0.0,0.000289,2
1633034056421233328,12140,1633034056400000095,gpsRover,2,3,33.9110792273,-84.5300166913,300.256,4.9e-05,0.0,0.0,0.0,3.6e-05,0.0,0.0,0.0,0.000289,2
1633034056471188802,12141,1633034056450000048,gpsRover,2,3,33.9110788873,-84.530016895,300.252,4.9e-05,0.0,0.0,0.0,3.6e-05,0.0,0.0,0.0,0.000289,2
1633034056521120747,12142,1633034056500000000,gpsRover,2,3,33.9110785252,-84.5300171175,300.244,4.9e-05,0.0,0.0,0.0,3.6e-05,0.0,0.0,0.0,0.000289,2
1633034056571363549,12143,1633034056549999952,gpsRover,2,3,33.9110781903,-84.5300173712,300.246,4.9e-05,0.0,0.0,0.0,3.6e-05,0.0,0.0,0.0,0.000289,2
1633034056624107517,12144,1633034056599999905,gpsRover,2,3,33.911077873,-84.5300175932,300.249,4.9e-05,0.0,0.0,0.0,3.6e-05,0.0,0.0,0.0,0.000289,2
1633034056672056720,12145,1633034056650000095,gpsRover,2,3,33.9110775355,-84.5300177247,300.246,4.9e-05,0.0,0.0,0.0,3.6e-05,0.0,0.0,0.0,0.000289,2
1633034056720965253,12146,1633034056700000048,gpsRover,2,3,33.9110772345,-84.5300178317,300.249,4.9e-05,0.0,0.0,0.0,3.6e-05,0.0,0.0,0.0,0.000289,2
1633034056770933325,12147,1633034056750000000,gpsRover,2,3,33.9110769728,-84.5300179645,300.253,4.9e-05,0.0,0.0,0.0,3.6e-05,0.0,0.0,0.0,0.000289,2
1633034056820985427,12148,1633034056799999952,gpsRover,2,3,33.9110766902,-84.5300180337,300.248,4.9e-05,0.0,0.0,0.0,3.6e-05,0.0,0.0,0.0,0.000289,2
1633034056870890487,12149,1633034056849999905,gpsRover,2,3,33.911076433,-84.5300180822,300.254,4.9e-05,0.0,0.0,0.0,3.6e-05,0.0,0.0,0.0,0.000289,2
1633034056921848662,12150,1633034056900000095,gpsRover,2,3,33.9110762127,-84.5300181227,300.262,4.9e-05,0.0,0.0,0.0,3.6e-05,0.0,0.0,0.0,0.000289,2
1633034056970803915,12151,1633034056950000048,gpsRover,2,3,33.9110759883,-84.5300181968,300.27,4.9e-05,0.0,0.0,0.0,3.6e-05,0.0,0.0,0.0,0.000289,2
1633034057022745655,12152,1633034057000000000,gpsRover,2,3,33.9110757522,-84.5300182917,300.273,4.9e-05,0.0,0.0,0.0,3.6e-05,0.0,0.0,0.0,0.000289,2
1633034057088793425,12153,1633034057049999952,gpsRover,2,3,33.9110755572,-84.5300183785,300.273,8.1e-05,0.0,0.0,0.0,4.9e-05,0.0,0.0,0.0,0.000441,2
1633034057122700870,12154,1633034057099999905,gpsRover,2,3,33.9110753847,-84.5300184395,300.267,8.1e-05,0.0,0.0,0.0,4.9e-05,0.0,0.0,0.0,0.000441,2
1633034057171695121,12155,1633034057150000095,gpsRover,2,3,33.9110751715,-84.5300184952,300.266,8.1e-05,0.0,0.0,0.0,4.9e-05,0.0,0.0,0.0,0.000441,2
1633034057220659544,12156,1633034057200000048,gpsRover,2,3,33.9110749228,-84.5300185717,300.265,8.1e-05,0.0,0.0,0.0,4.9e-05,0.0,0.0,0.0,0.000441,2
1633034057271572909,12157,1633034057250000000,gpsRover,2,3,33.9110746662,-84.5300186562,300.268,8.1e-05,0.0,0.0,0.0,4.9e-05,0.0,0.0,0.0,0.000441,2
1633034057321552968,12158,1633034057299999952,gpsRover,2,3,33.9110744762,-84.530018761,300.273,8.1e-05,0.0,0.0,0.0,4.9e-05,0.0,0.0,0.0,0.000441,2
1633034057370774498,12159,1633034057349999905,gpsRover,2,3,33.9110742977,-84.5300189383,300.275,8.1e-05,0.0,0.0,0.0,4.9e-05,0.0,0.0,0.0,0.000441,2
1633034057421529619,12160,1633034057400000095,gpsRover,2,3,33.9110740837,-84.530019159,300.28,8.1e-05,0.0,0.0,0.0,4.9e-05,0.0,0.0,0.0,0.000441,2
1633034057471516738,12161,1633034057450000048,gpsRover,2,3,33.9110738765,-84.530019293,300.282,8.1e-05,0.0,0.0,0.0,4.9e-05,0.0,0.0,0.0,0.000441,2
1633034057521366858,12162,1633034057500000000,gpsRover,2,3,33.9110737085,-84.5300193353,300.286,8.1e-05,0.0,0.0,0.0,4.9e-05,0.0,0.0,0.0,0.000441,2
1633034057570342406,12163,1633034057549999952,gpsRover,2,3,33.9110735348,-84.5300193478,300.287,8.1e-05,0.0,0.0,0.0,4.9e-05,0.0,0.0,0.0,0.000441,2
1633034057625602367,12164,1633034057599999905,gpsRover,2,3,33.9110733065,-84.5300193658,300.285,8.1e-05,0.0,0.0,0.0,4.9e-05,0.0,0.0,0.0,0.000441,2
1633034057672305737,12165,1633034057650000095,gpsRover,2,3,33.9110730843,-84.5300194332,300.295,8.1e-05,0.0,0.0,0.0,4.9e-05,0.0,0.0,0.0,0.000441,2
1633034057721289079,12166,1633034057700000048,gpsRover,2,3,33.9110729217,-84.5300194962,300.298,8.1e-05,0.0,0.0,0.0,4.9e-05,0.0,0.0,0.0,0.000441,2
1633034057770377229,12167,1633034057750000000,gpsRover,2,3,33.911072825,-84.530019541,300.304,8.1e-05,0.0,0.0,0.0,4.9e-05,0.0,0.0,0.0,0.000441,2
1633034057821215914,12168,1633034057799999952,gpsRover,2,3,33.9110728593,-84.5300195693,300.301,8.1e-05,0.0,0.0,0.0,4.9e-05,0.0,0.0,0.0,0.000441,2
1633034057871126627,12169,1633034057849999905,gpsRover,2,3,33.9110729848,-84.5300195102,300.295,8.1e-05,0.0,0.0,0.0,4.9e-05,0.0,0.0,0.0,0.000441,2
1633034057920150689,12170,1633034057900000095,gpsRover,2,3,33.9110732087,-84.5300194155,300.299,8.1e-05,0.0,0.0,0.0,4.9e-05,0.0,0.0,0.0,0.000441,2
1633034057971134188,12171,1633034057950000048,gpsRover,2,3,33.911073463,-84.5300192797,300.298,8.1e-05,0.0,0.0,0.0,4.9e-05,0.0,0.0,0.0,0.000441,2
1633034058021128481,12172,1633034058000000000,gpsRover,2,3,33.911073716,-84.5300191455,300.296,8.1e-05,0.0,0.0,0.0,4.9e-05,0.0,0.0,0.0,0.000441,2
1633034058087144315,12173,1633034058049999952,gpsRover,2,3,33.9110740315,-84.5300190012,300.293,8.1e-05,0.0,0.0,0.0,4.9e-05,0.0,0.0,0.0,0.000441,2
1633034058122060276,12174,1633034058099999905,gpsRover,2,3,33.911074386,-84.5300188553,300.285,8.1e-05,0.0,0.0,0.0,4.9e-05,0.0,0.0,0.0,0.000441,2
1633034058171010064,12175,1633034058150000095,gpsRover,2,3,33.9110746563,-84.5300187935,300.287,8.1e-05,0.0,0.0,0.0,4.9e-05,0.0,0.0,0.0,0.000441,2
1633034058220934935,12176,1633034058200000048,gpsRover,2,3,33.9110748497,-84.530018734,300.279,8.1e-05,0.0,0.0,0.0,4.9e-05,0.0,0.0,0.0,0.000441,2
1633034058270895934,12177,1633034058250000000,gpsRover,2,3,33.9110750002,-84.5300186392,300.278,8.1e-05,0.0,0.0,0.0,4.9e-05,0.0,0.0,0.0,0.000441,2
1633034058320821549,12178,1633034058299999952,gpsRover,2,3,33.911075138,-84.530018504,300.275,8.1e-05,0.0,0.0,0.0,4.9e-05,0.0,0.0,0.0,0.000441,2
1633034058370798044,12179,1633034058349999905,gpsRover,2,3,33.9110752733,-84.5300184817,300.278,8.1e-05,0.0,0.0,0.0,4.9e-05,0.0,0.0,0.0,0.000441,2
1633034058421799588,12180,1633034058400000095,gpsRover,2,3,33.9110753985,-84.5300185113,300.272,8.1e-05,0.0,0.0,0.0,4.9e-05,0.0,0.0,0.0,0.000441,2
1633034058470807692,12181,1633034058450000048,gpsRover,2,3,33.9110754642,-84.5300185062,300.269,8.1e-05,0.0,0.0,0.0,4.9e-05,0.0,0.0,0.0,0.000441,2
1633034058520706858,12182,1633034058500000000,gpsRover,2,3,33.9110754912,-84.5300184755,300.268,8.1e-05,0.0,0.0,0.0,4.9e-05,0.0,0.0,0.0,0.000441,2
1633034058571675370,12183,1633034058549999952,gpsRover,2,3,33.9110754748,-84.5300184505,300.266,8.1e-05,0.0,0.0,0.0,4.9e-05,0.0,0.0,0.0,0.000441,2
1633034058624624476,12184,1633034058599999905,gpsRover,2,3,33.91107544,-84.530018415,300.254,8.1e-05,0.0,0.0,0.0,4.9e-05,0.0,0.0,0.0,0.000441,2
1633034058671656995,12185,1633034058650000095,gpsRover,2,3,33.911075255,-84.5300184705,300.25,8.1e-05,0.0,0.0,0.0,4.9e-05,0.0,0.0,0.0,0.000441,2
1633034058721604675,12186,1633034058700000048,gpsRover,2,3,33.9110749305,-84.5300185493,300.251,8.1e-05,0.0,0.0,0.0,4.9e-05,0.0,0.0,0.0,0.000441,2
1633034058771548075,12187,1633034058750000000,gpsRover,2,3,33.9110746667,-84.5300185985,300.254,8.1e-05,0.0,0.0,0.0,4.9e-05,0.0,0.0,0.0,0.000441,2
1633034058822024372,12188,1633034058799999952,gpsRover,2,3,33.9110744702,-84.5300186648,300.253,8.1e-05,0.0,0.0,0.0,4.9e-05,0.0,0.0,0.0,0.000441,2
1633034058870475677,12189,1633034058849999905,gpsRover,2,3,33.9110742142,-84.5300188115,300.245,8.1e-05,0.0,0.0,0.0,4.9e-05,0.0,0.0,0.0,0.000441,2
1633034058921428537,12190,1633034058900000095,gpsRover,2,3,33.91107391,-84.5300189683,300.244,8.1e-05,0.0,0.0,0.0,4.9e-05,0.0,0.0,0.0,0.000441,2
1633034058970470262,12191,1633034058950000048,gpsRover,2,3,33.9110736248,-84.5300190908,300.245,8.1e-05,0.0,0.0,0.0,4.9e-05,0.0,0.0,0.0,0.000441,2
1633034059021421374,12192,1633034059000000000,gpsRover,2,3,33.9110733878,-84.5300191653,300.234,8.1e-05,0.0,0.0,0.0,4.9e-05,0.0,0.0,0.0,0.000441,2
1633034059087349628,12193,1633034059049999952,gpsRover,2,3,33.9110731103,-84.5300192742,300.235,8.1e-05,0.0,0.0,0.0,4.9e-05,0.0,0.0,0.0,0.000441,2
1633034059122272864,12194,1633034059099999905,gpsRover,2,3,33.9110728638,-84.5300194743,300.25,8.1e-05,0.0,0.0,0.0,4.9e-05,0.0,0.0,0.0,0.000441,2
1633034059171247805,12195,1633034059150000095,gpsRover,2,3,33.911072715,-84.5300195935,300.253,8.1e-05,0.0,0.0,0.0,4.9e-05,0.0,0.0,0.0,0.000441,2
1633034059220502223,12196,1633034059200000048,gpsRover,2,3,33.9110725587,-84.5300196362,300.263,8.1e-05,0.0,0.0,0.0,4.9e-05,0.0,0.0,0.0,0.000441,2
1633034059272933208,12197,1633034059250000000,gpsRover,2,3,33.9110724203,-84.530019667,300.266,8.1e-05,0.0,0.0,0.0,4.9e-05,0.0,0.0,0.0,0.000441,2
1633034059321285813,12198,1633034059299999952,gpsRover,2,3,33.9110722997,-84.5300197365,300.27,8.1e-05,0.0,0.0,0.0,4.9e-05,0.0,0.0,0.0,0.000441,2
1633034059371206694,12199,1633034059349999905,gpsRover,2,3,33.9110722067,-84.5300198228,300.268,8.1e-05,0.0,0.0,0.0,4.9e-05,0.0,0.0,0.0,0.000441,2
1633034059421097510,12200,1633034059400000095,gpsRover,2,3,33.911072085,-84.5300198943,300.271,8.1e-05,0.0,0.0,0.0,4.9e-05,0.0,0.0,0.0,0.000441,2
1633034059470034802,12201,1633034059450000048,gpsRover,2,3,33.911071978,-84.530019885,300.269,8.1e-05,0.0,0.0,0.0,4.9e-05,0.0,0.0,0.0,0.000441,2
1633034059521118763,12202,1633034059500000000,gpsRover,2,3,33.9110718768,-84.5300199028,300.277,8.1e-05,0.0,0.0,0.0,4.9e-05,0.0,0.0,0.0,0.000441,2
1633034059570970927,12203,1633034059549999952,gpsRover,2,3,33.9110718105,-84.530019945,300.279,8.1e-05,0.0,0.0,0.0,4.9e-05,0.0,0.0,0.0,0.000441,2
1633034059621999807,12204,1633034059599999905,gpsRover,2,3,33.9110717733,-84.530019955,300.284,8.1e-05,0.0,0.0,0.0,4.9e-05,0.0,0.0,0.0,0.000441,2
1633034059670954134,12205,1633034059650000095,gpsRover,2,3,33.9110717457,-84.5300199588,300.286,8.1e-05,0.0,0.0,0.0,4.9e-05,0.0,0.0,0.0,0.000441,2
1633034059725924078,12206,1633034059700000048,gpsRover,2,3,33.9110717517,-84.5300199647,300.284,8.1e-05,0.0,0.0,0.0,4.9e-05,0.0,0.0,0.0,0.000441,2
1633034059771921531,12207,1633034059750000000,gpsRover,2,3,33.9110717545,-84.5300199728,300.289,8.1e-05,0.0,0.0,0.0,4.9e-05,0.0,0.0,0.0,0.000441,2
1633034059820858441,12208,1633034059799999952,gpsRover,2,3,33.911071763,-84.5300199618,300.288,8.1e-05,0.0,0.0,0.0,4.9e-05,0.0,0.0,0.0,0.000441,2
1633034059871800174,12209,1633034059849999905,gpsRover,2,3,33.9110717888,-84.5300199565,300.285,8.1e-05,0.0,0.0,0.0,4.9e-05,0.0,0.0,0.0,0.000441,2
1633034059921736823,12210,1633034059900000095,gpsRover,2,3,33.9110718205,-84.530019939,300.285,8.1e-05,0.0,0.0,0.0,4.9e-05,0.0,0.0,0.0,0.000441,2
1633034059971779081,12211,1633034059950000048,gpsRover,2,3,33.9110718508,-84.5300199412,300.287,8.1e-05,0.0,0.0,0.0,4.9e-05,0.0,0.0,0.0,0.000441,2
1633034060021650484,12212,1633034060000000000,gpsRover,2,3,33.911071886,-84.530019952,300.282,8.1e-05,0.0,0.0,0.0,4.9e-05,0.0,0.0,0.0,0.000441,2
1633034060088632782,12213,1633034060049999952,gpsRover,2,3,33.9110719062,-84.5300199327,300.283,6.4e-05,0.0,0.0,0.0,6.4e-05,0.0,0.0,0.0,0.0004,2
1633034060122752452,12214,1633034060099999905,gpsRover,2,3,33.9110719293,-84.5300199255,300.291,6.4e-05,0.0,0.0,0.0,6.4e-05,0.0,0.0,0.0,0.0004,2
1633034060171535914,12215,1633034060150000095,gpsRover,2,3,33.9110719778,-84.5300198892,300.284,6.4e-05,0.0,0.0,0.0,6.4e-05,0.0,0.0,0.0,0.0004,2
1633034060221558148,12216,1633034060200000048,gpsRover,2,3,33.911071994,-84.530019919,300.285,6.4e-05,0.0,0.0,0.0,6.4e-05,0.0,0.0,0.0,0.0004,2
1633034060271483139,12217,1633034060250000000,gpsRover,2,3,33.911071991,-84.5300199367,300.293,6.4e-05,0.0,0.0,0.0,6.4e-05,0.0,0.0,0.0,0.0004,2
1633034060321524450,12218,1633034060299999952,gpsRover,2,3,33.9110719838,-84.5300199295,300.293,6.4e-05,0.0,0.0,0.0,6.4e-05,0.0,0.0,0.0,0.0004,2
1633034060370546732,12219,1633034060349999905,gpsRover,2,3,33.9110719968,-84.530019964,300.289,6.4e-05,0.0,0.0,0.0,6.4e-05,0.0,0.0,0.0,0.0004,2
1633034060421488837,12220,1633034060400000095,gpsRover,2,3,33.911071986,-84.530019959,300.295,6.4e-05,0.0,0.0,0.0,6.4e-05,0.0,0.0,0.0,0.0004,2
1633034060471322868,12221,1633034060450000048,gpsRover,2,3,33.9110719847,-84.5300199457,300.292,6.4e-05,0.0,0.0,0.0,6.4e-05,0.0,0.0,0.0,0.0004,2
1633034060521359929,12222,1633034060500000000,gpsRover,2,3,33.9110719793,-84.5300199688,300.296,6.4e-05,0.0,0.0,0.0,6.4e-05,0.0,0.0,0.0,0.0004,2
1633034060571376736,12223,1633034060549999952,gpsRover,2,3,33.9110719838,-84.5300199678,300.291,6.4e-05,0.0,0.0,0.0,6.4e-05,0.0,0.0,0.0,0.0004,2
1633034060622303248,12224,1633034060599999905,gpsRover,2,3,33.911071981,-84.5300199407,300.288,6.4e-05,0.0,0.0,0.0,6.4e-05,0.0,0.0,0.0,0.0004,2
1633034060672308667,12225,1633034060650000095,gpsRover,2,3,33.9110719725,-84.530019944,300.291,6.4e-05,0.0,0.0,0.0,6.4e-05,0.0,0.0,0.0,0.0004,2
1633034060725138439,12226,1633034060700000048,gpsRover,2,3,33.9110719872,-84.530019937,300.287,6.4e-05,0.0,0.0,0.0,6.4e-05,0.0,0.0,0.0,0.0004,2
1633034060772130387,12227,1633034060750000000,gpsRover,2,3,33.9110719887,-84.5300199287,300.291,6.4e-05,0.0,0.0,0.0,6.4e-05,0.0,0.0,0.0,0.0004,2
1633034060821126340,12228,1633034060799999952,gpsRover,2,3,33.9110719998,-84.5300199467,300.288,6.4e-05,0.0,0.0,0.0,6.4e-05,0.0,0.0,0.0,0.0004,2
1633034060871143031,12229,1633034060849999905,gpsRover,2,3,33.9110720043,-84.5300199462,300.286,6.4e-05,0.0,0.0,0.0,6.4e-05,0.0,0.0,0.0,0.0004,2
1633034060921034286,12230,1633034060900000095,gpsRover,2,3,33.9110719977,-84.5300199582,300.298,6.4e-05,0.0,0.0,0.0,6.4e-05,0.0,0.0,0.0,0.0004,2
1633034060971062100,12231,1633034060950000048,gpsRover,2,3,33.91107209,-84.5300199478,300.3,6.4e-05,0.0,0.0,0.0,6.4e-05,0.0,0.0,0.0,0.0004,2
1633034061024021256,12232,1633034061000000000,gpsRover,2,3,33.911072258,-84.5300198992,300.302,6.4e-05,0.0,0.0,0.0,6.4e-05,0.0,0.0,0.0,0.0004,2
1633034061088873159,12233,1633034061049999952,gpsRover,2,3,33.9110725208,-84.5300198415,300.299,6.4e-05,0.0,0.0,0.0,6.4e-05,0.0,0.0,0.0,0.0004,2
1633034061121944993,12234,1633034061099999905,gpsRover,2,3,33.9110728077,-84.5300197678,300.3,6.4e-05,0.0,0.0,0.0,6.4e-05,0.0,0.0,0.0,0.0004,2
1633034061171881664,12235,1633034061150000095,gpsRover,2,3,33.9110732042,-84.5300195608,300.279,6.4e-05,0.0,0.0,0.0,6.4e-05,0.0,0.0,0.0,0.0004,2
1633034061221080667,12236,1633034061200000048,gpsRover,2,3,33.911073541,-84.53001931,300.275,6.4e-05,0.0,0.0,0.0,6.4e-05,0.0,0.0,0.0,0.0004,2
1633034061270779202,12237,1633034061250000000,gpsRover,2,3,33.911073763,-84.5300191702,300.276,6.4e-05,0.0,0.0,0.0,6.4e-05,0.0,0.0,0.0,0.0004,2
1633034061320764851,12238,1633034061299999952,gpsRover,2,3,33.9110739853,-84.5300191182,300.277,6.4e-05,0.0,0.0,0.0,6.4e-05,0.0,0.0,0.0,0.0004,2
1633034061370749269,12239,1633034061349999905,gpsRover,2,3,33.911074191,-84.5300190733,300.283,6.4e-05,0.0,0.0,0.0,6.4e-05,0.0,0.0,0.0,0.0004,2
1633034061421730065,12240,1633034061400000095,gpsRover,2,3,33.9110743452,-84.530018998,300.279,6.4e-05,0.0,0.0,0.0,6.4e-05,0.0,0.0,0.0,0.0004,2
1633034061470706487,12241,1633034061450000048,gpsRover,2,3,33.911074468,-84.5300189402,300.278,6.4e-05,0.0,0.0,0.0,6.4e-05,0.0,0.0,0.0,0.0004,2
1633034061520650847,12242,1633034061500000000,gpsRover,2,3,33.9110745793,-84.530018913,300.275,6.4e-05,0.0,0.0,0.0,6.4e-05,0.0,0.0,0.0,0.0004,2
1633034061570596698,12243,1633034061549999952,gpsRover,2,3,33.9110746453,-84.5300188597,300.273,6.4e-05,0.0,0.0,0.0,6.4e-05,0.0,0.0,0.0,0.0004,2
1633034061625827068,12244,1633034061599999905,gpsRover,2,3,33.9110746505,-84.5300188378,300.27,6.4e-05,0.0,0.0,0.0,6.4e-05,0.0,0.0,0.0,0.0004,2
1633034061671524849,12245,1633034061650000095,gpsRover,2,3,33.9110746648,-84.5300188507,300.267,6.4e-05,0.0,0.0,0.0,6.4e-05,0.0,0.0,0.0,0.0004,2
1633034061721491212,12246,1633034061700000048,gpsRover,2,3,33.911074663,-84.5300188563,300.266,6.4e-05,0.0,0.0,0.0,6.4e-05,0.0,0.0,0.0,0.0004,2
1633034061771506619,12247,1633034061750000000,gpsRover,2,3,33.9110746452,-84.5300188527,300.26,6.4e-05,0.0,0.0,0.0,6.4e-05,0.0,0.0,0.0,0.0004,2
1633034061821489911,12248,1633034061799999952,gpsRover,2,3,33.911074605,-84.5300188743,300.264,6.4e-05,0.0,0.0,0.0,6.4e-05,0.0,0.0,0.0,0.0004,2
1633034061871527359,12249,1633034061849999905,gpsRover,2,3,33.9110745492,-84.5300189077,300.266,6.4e-05,0.0,0.0,0.0,6.4e-05,0.0,0.0,0.0,0.0004,2
1633034061920444774,12250,1633034061900000095,gpsRover,2,3,33.9110744895,-84.5300189143,300.259,6.4e-05,0.0,0.0,0.0,6.4e-05,0.0,0.0,0.0,0.0004,2
1633034061971410660,12251,1633034061950000048,gpsRover,2,3,33.9110744168,-84.5300189525,300.257,6.4e-05,0.0,0.0,0.0,6.4e-05,0.0,0.0,0.0,0.0004,2
1633034062021350137,12252,1633034062000000000,gpsRover,2,3,33.9110743048,-84.530018999,300.26,6.4e-05,0.0,0.0,0.0,6.4e-05,0.0,0.0,0.0,0.0004,2
1633034062087269515,12253,1633034062049999952,gpsRover,2,3,33.91107422,-84.5300190305,300.258,6.4e-05,0.0,0.0,0.0,6.4e-05,0.0,0.0,0.0,0.0004,2
1633034062123257141,12254,1633034062099999905,gpsRover,2,3,33.9110741215,-84.5300190718,300.257,6.4e-05,0.0,0.0,0.0,6.4e-05,0.0,0.0,0.0,0.0004,2
1633034062171365295,12255,1633034062150000095,gpsRover,2,3,33.911073985,-84.530019138,300.257,6.4e-05,0.0,0.0,0.0,6.4e-05,0.0,0.0,0.0,0.0004,2
1633034062221253961,12256,1633034062200000048,gpsRover,2,3,33.9110738473,-84.5300192102,300.258,6.4e-05,0.0,0.0,0.0,6.4e-05,0.0,0.0,0.0,0.0004,2
1633034062271185888,12257,1633034062250000000,gpsRover,2,3,33.9110737157,-84.5300192675,300.258,6.4e-05,0.0,0.0,0.0,6.4e-05,0.0,0.0,0.0,0.0004,2
1633034062321146223,12258,1633034062299999952,gpsRover,2,3,33.9110736097,-84.5300192815,300.253,6.4e-05,0.0,0.0,0.0,6.4e-05,0.0,0.0,0.0,0.0004,2
1633034062372122668,12259,1633034062349999905,gpsRover,2,3,33.9110734778,-84.5300193393,300.252,6.4e-05,0.0,0.0,0.0,6.4e-05,0.0,0.0,0.0,0.0004,2
1633034062421020112,12260,1633034062400000095,gpsRover,2,3,33.9110733218,-84.5300193757,300.244,6.4e-05,0.0,0.0,0.0,6.4e-05,0.0,0.0,0.0,0.0004,2
1633034062472081042,12261,1633034062450000048,gpsRover,2,3,33.9110731543,-84.5300194428,300.241,6.4e-05,0.0,0.0,0.0,6.4e-05,0.0,0.0,0.0,0.0004,2
1633034062521112996,12262,1633034062500000000,gpsRover,2,3,33.9110730065,-84.5300195442,300.25,6.4e-05,0.0,0.0,0.0,6.4e-05,0.0,0.0,0.0,0.0004,2
1633034062571915343,12263,1633034062549999952,gpsRover,2,3,33.9110728687,-84.5300196425,300.256,6.4e-05,0.0,0.0,0.0,6.4e-05,0.0,0.0,0.0,0.0004,2
1633034062621957953,12264,1633034062599999905,gpsRover,2,3,33.9110727513,-84.5300196993,300.261,6.4e-05,0.0,0.0,0.0,6.4e-05,0.0,0.0,0.0,0.0004,2
1633034062671866580,12265,1633034062650000095,gpsRover,2,3,33.9110727017,-84.5300197088,300.26,6.4e-05,0.0,0.0,0.0,6.4e-05,0.0,0.0,0.0,0.0004,2
1633034062725855962,12266,1633034062700000048,gpsRover,2,3,33.9110726527,-84.5300197283,300.263,6.4e-05,0.0,0.0,0.0,6.4e-05,0.0,0.0,0.0,0.0004,2
1633034062772805138,12267,1633034062750000000,gpsRover,2,3,33.9110726102,-84.5300197805,300.271,6.4e-05,0.0,0.0,0.0,6.4e-05,0.0,0.0,0.0,0.0004,2
1633034062822775730,12268,1633034062799999952,gpsRover,2,3,33.9110726065,-84.5300197908,300.27,6.4e-05,0.0,0.0,0.0,6.4e-05,0.0,0.0,0.0,0.0004,2
1633034062871838775,12269,1633034062849999905,gpsRover,2,3,33.9110726028,-84.5300197837,300.27,6.4e-05,0.0,0.0,0.0,6.4e-05,0.0,0.0,0.0,0.0004,2
1633034062922769521,12270,1633034062900000095,gpsRover,2,3,33.9110726105,-84.530019785,300.274,6.4e-05,0.0,0.0,0.0,6.4e-05,0.0,0.0,0.0,0.0004,2
1633034062972678126,12271,1633034062950000048,gpsRover,2,3,33.9110726382,-84.5300197765,300.273,6.4e-05,0.0,0.0,0.0,6.4e-05,0.0,0.0,0.0,0.0004,2
1633034063023613831,12272,1633034063000000000,gpsRover,2,3,33.9110726687,-84.5300197467,300.275,6.4e-05,0.0,0.0,0.0,6.4e-05,0.0,0.0,0.0,0.0004,2
1633034063089570634,12273,1633034063049999952,gpsRover,2,3,33.9110727032,-84.530019723,300.275,6.4e-05,0.0,0.0,0.0,4.9e-05,0.0,0.0,0.0,0.000361,2
1633034063123497694,12274,1633034063099999905,gpsRover,2,3,33.9110727382,-84.5300197303,300.279,6.4e-05,0.0,0.0,0.0,4.9e-05,0.0,0.0,0.0,0.000361,2
1633034063173688574,12275,1633034063150000095,gpsRover,2,3,33.9110727912,-84.530019718,300.271,6.4e-05,0.0,0.0,0.0,4.9e-05,0.0,0.0,0.0,0.000361,2
1633034063222537155,12276,1633034063200000048,gpsRover,2,3,33.9110728377,-84.5300197012,300.277,6.4e-05,0.0,0.0,0.0,4.9e-05,0.0,0.0,0.0,0.000361,2
1633034063272636133,12277,1633034063250000000,gpsRover,2,3,33.9110729227,-84.530019635,300.265,6.4e-05,0.0,0.0,0.0,4.9e-05,0.0,0.0,0.0,0.000361,2
1633034063322530939,12278,1633034063299999952,gpsRover,2,3,33.9110729865,-84.5300196048,300.267,6.4e-05,0.0,0.0,0.0,4.9e-05,0.0,0.0,0.0,0.000361,2
1633034063372342799,12279,1633034063349999905,gpsRover,2,3,33.9110731238,-84.5300195128,300.258,6.4e-05,0.0,0.0,0.0,4.9e-05,0.0,0.0,0.0,0.000361,2
1633034063423384271,12280,1633034063400000095,gpsRover,2,3,33.91107325,-84.5300194453,300.25,6.4e-05,0.0,0.0,0.0,4.9e-05,0.0,0.0,0.0,0.000361,2
1633034063472255251,12281,1633034063450000048,gpsRover,2,3,33.9110733577,-84.5300193965,300.251,6.4e-05,0.0,0.0,0.0,4.9e-05,0.0,0.0,0.0,0.000361,2
1633034063523314681,12282,1633034063500000000,gpsRover,2,3,33.911073438,-84.5300193705,300.248,6.4e-05,0.0,0.0,0.0,4.9e-05,0.0,0.0,0.0,0.000361,2
1633034063572219428,12283,1633034063549999952,gpsRover,2,3,33.9110734647,-84.5300193338,300.248,6.4e-05,0.0,0.0,0.0,4.9e-05,0.0,0.0,0.0,0.000361,2
1633034063622173045,12284,1633034063599999905,gpsRover,2,3,33.9110734647,-84.5300193188,300.244,6.4e-05,0.0,0.0,0.0,4.9e-05,0.0,0.0,0.0,0.000361,2
1633034063672184833,12285,1633034063650000095,gpsRover,2,3,33.9110734232,-84.5300193295,300.245,6.4e-05,0.0,0.0,0.0,4.9e-05,0.0,0.0,0.0,0.000361,2
1633034063726104226,12286,1633034063700000048,gpsRover,2,3,33.911073373,-84.5300193608,300.24,6.4e-05,0.0,0.0,0.0,4.9e-05,0.0,0.0,0.0,0.000361,2
1633034063773071053,12287,1633034063750000000,gpsRover,2,3,33.9110732952,-84.5300193962,300.244,6.4e-05,0.0,0.0,0.0,4.9e-05,0.0,0.0,0.0,0.000361,2
1633034063823087399,12288,1633034063799999952,gpsRover,2,3,33.9110732377,-84.5300194168,300.244,6.4e-05,0.0,0.0,0.0,4.9e-05,0.0,0.0,0.0,0.000361,2
1633034063872942220,12289,1633034063849999905,gpsRover,2,3,33.9110732078,-84.530019476,300.245,6.4e-05,0.0,0.0,0.0,4.9e-05,0.0,0.0,0.0,0.000361,2
1633034063922922033,12290,1633034063900000095,gpsRover,2,3,33.9110731915,-84.5300194777,300.244,6.4e-05,0.0,0.0,0.0,4.9e-05,0.0,0.0,0.0,0.000361,2
1633034063972065892,12291,1633034063950000048,gpsRover,2,3,33.9110731818,-84.5300194737,300.242,6.4e-05,0.0,0.0,0.0,4.9e-05,0.0,0.0,0.0,0.000361,2
1633034064022868369,12292,1633034064000000000,gpsRover,2,3,33.911073212,-84.5300194508,300.241,6.4e-05,0.0,0.0,0.0,4.9e-05,0.0,0.0,0.0,0.000361,2
1633034064088810039,12293,1633034064049999952,gpsRover,2,3,33.9110732608,-84.530019419,300.239,6.4e-05,0.0,0.0,0.0,4.9e-05,0.0,0.0,0.0,0.000361,2
1633034064122813323,12294,1633034064099999905,gpsRover,2,3,33.9110733057,-84.5300193757,300.236,6.4e-05,0.0,0.0,0.0,4.9e-05,0.0,0.0,0.0,0.000361,2
1633034064171956555,12295,1633034064150000095,gpsRover,2,3,33.9110733257,-84.5300193563,300.241,6.4e-05,0.0,0.0,0.0,4.9e-05,0.0,0.0,0.0,0.000361,2
1633034064222740632,12296,1633034064200000048,gpsRover,2,3,33.9110733377,-84.5300193835,300.238,6.4e-05,0.0,0.0,0.0,4.9e-05,0.0,0.0,0.0,0.000361,2
1633034064272107228,12297,1633034064250000000,gpsRover,2,3,33.9110732975,-84.5300194132,300.241,6.4e-05,0.0,0.0,0.0,4.9e-05,0.0,0.0,0.0,0.000361,2
1633034064321793404,12298,1633034064299999952,gpsRover,2,3,33.9110732797,-84.5300194202,300.238,6.4e-05,0.0,0.0,0.0,4.9e-05,0.0,0.0,0.0,0.000361,2
1633034064371813016,12299,1633034064349999905,gpsRover,2,3,33.9110732577,-84.5300194372,300.238,6.4e-05,0.0,0.0,0.0,4.9e-05,0.0,0.0,0.0,0.000361,2
1633034064422589148,12300,1633034064400000095,gpsRover,2,3,33.9110732633,-84.530019436,300.236,6.4e-05,0.0,0.0,0.0,4.9e-05,0.0,0.0,0.0,0.000361,2
1633034064472641682,12301,1633034064450000048,gpsRover,2,3,33.9110732707,-84.5300194315,300.235,6.4e-05,0.0,0.0,0.0,4.9e-05,0.0,0.0,0.0,0.000361,2
1633034064522520502,12302,1633034064500000000,gpsRover,2,3,33.911073266,-84.5300194458,300.237,6.4e-05,0.0,0.0,0.0,4.9e-05,0.0,0.0,0.0,0.000361,2
1633034064571565825,12303,1633034064549999952,gpsRover,2,3,33.911073287,-84.5300194233,300.235,6.4e-05,0.0,0.0,0.0,4.9e-05,0.0,0.0,0.0,0.000361,2
1633034064622504398,12304,1633034064599999905,gpsRover,2,3,33.9110733007,-84.5300194172,300.236,6.4e-05,0.0,0.0,0.0,4.9e-05,0.0,0.0,0.0,0.000361,2
1633034064672702505,12305,1633034064650000095,gpsRover,2,3,33.9110733017,-84.5300194182,300.232,6.4e-05,0.0,0.0,0.0,4.9e-05,0.0,0.0,0.0,0.000361,2
1633034064726361488,12306,1633034064700000048,gpsRover,2,3,33.9110732712,-84.5300194172,300.236,6.4e-05,0.0,0.0,0.0,4.9e-05,0.0,0.0,0.0,0.000361,2
1633034064772445327,12307,1633034064750000000,gpsRover,2,3,33.9110732623,-84.5300193978,300.236,6.4e-05,0.0,0.0,0.0,4.9e-05,0.0,0.0,0.0,0.000361,2
1633034064822382802,12308,1633034064799999952,gpsRover,2,3,33.9110732547,-84.530019423,300.239,6.4e-05,0.0,0.0,0.0,4.9e-05,0.0,0.0,0.0,0.000361,2
1633034064872363880,12309,1633034064849999905,gpsRover,2,3,33.9110732338,-84.530019439,300.241,6.4e-05,0.0,0.0,0.0,4.9e-05,0.0,0.0,0.0,0.000361,2
1633034064922353964,12310,1633034064900000095,gpsRover,2,3,33.9110732318,-84.5300194388,300.241,6.4e-05,0.0,0.0,0.0,4.9e-05,0.0,0.0,0.0,0.000361,2
1633034064972470140,12311,1633034064950000048,gpsRover,2,3,33.9110732287,-84.5300194228,300.243,6.4e-05,0.0,0.0,0.0,4.9e-05,0.0,0.0,0.0,0.000361,2
1633034065023169810,12312,1633034065000000000,gpsRover,2,3,33.9110732358,-84.5300194323,300.241,6.4e-05,0.0,0.0,0.0,4.9e-05,0.0,0.0,0.0,0.000361,2
1633034065089105487,12313,1633034065049999952,gpsRover,2,3,33.9110732423,-84.5300194557,300.241,6.4e-05,0.0,0.0,0.0,4.9e-05,0.0,0.0,0.0,0.000361,2
1633034065123134328,12314,1633034065099999905,gpsRover,2,3,33.9110732317,-84.530019466,300.246,6.4e-05,0.0,0.0,0.0,4.9e-05,0.0,0.0,0.0,0.000361,2
1633034065172144710,12315,1633034065150000095,gpsRover,2,3,33.9110732267,-84.530019446,300.244,6.4e-05,0.0,0.0,0.0,4.9e-05,0.0,0.0,0.0,0.000361,2
1633034065222145717,12316,1633034065200000048,gpsRover,2,3,33.9110732183,-84.5300194503,300.248,6.4e-05,0.0,0.0,0.0,4.9e-05,0.0,0.0,0.0,0.000361,2
1633034065272026221,12317,1633034065250000000,gpsRover,2,3,33.9110732102,-84.5300194633,300.252,6.4e-05,0.0,0.0,0.0,4.9e-05,0.0,0.0,0.0,0.000361,2
1633034065322226596,12318,1633034065299999952,gpsRover,2,3,33.9110732113,-84.5300194773,300.25,6.4e-05,0.0,0.0,0.0,4.9e-05,0.0,0.0,0.0,0.000361,2
1633034065370940035,12319,1633034065349999905,gpsRover,2,3,33.9110732128,-84.5300194653,300.254,6.4e-05,0.0,0.0,0.0,4.9e-05,0.0,0.0,0.0,0.000361,2
1633034065423253982,12320,1633034065400000095,gpsRover,2,3,33.911073215,-84.5300194298,300.253,6.4e-05,0.0,0.0,0.0,4.9e-05,0.0,0.0,0.0,0.000361,2
1633034065471954741,12321,1633034065450000048,gpsRover,2,3,33.9110732143,-84.5300194133,300.25,6.4e-05,0.0,0.0,0.0,4.9e-05,0.0,0.0,0.0,0.000361,2
1633034065522789184,12322,1633034065500000000,gpsRover,2,3,33.9110731952,-84.5300194233,300.257,6.4e-05,0.0,0.0,0.0,4.9e-05,0.0,0.0,0.0,0.000361,2
1633034065571816799,12323,1633034065549999952,gpsRover,2,3,33.9110731778,-84.5300194353,300.254,6.4e-05,0.0,0.0,0.0,4.9e-05,0.0,0.0,0.0,0.000361,2
1633034065625696300,12324,1633034065599999905,gpsRover,2,3,33.9110731828,-84.530019426,300.256,6.4e-05,0.0,0.0,0.0,4.9e-05,0.0,0.0,0.0,0.000361,2
1633034065672712817,12325,1633034065650000095,gpsRover,2,3,33.9110731922,-84.530019452,300.254,6.4e-05,0.0,0.0,0.0,4.9e-05,0.0,0.0,0.0,0.000361,2
1633034065722771930,12326,1633034065700000048,gpsRover,2,3,33.9110731853,-84.5300194818,300.256,6.4e-05,0.0,0.0,0.0,4.9e-05,0.0,0.0,0.0,0.000361,2
1633034065772695400,12327,1633034065750000000,gpsRover,2,3,33.911073158,-84.5300194905,300.261,6.4e-05,0.0,0.0,0.0,4.9e-05,0.0,0.0,0.0,0.000361,2
1633034065822701299,12328,1633034065799999952,gpsRover,2,3,33.9110731622,-84.5300194397,300.255,6.4e-05,0.0,0.0,0.0,4.9e-05,0.0,0.0,0.0,0.000361,2
1633034065871611336,12329,1633034065849999905,gpsRover,2,3,33.9110731583,-84.5300194218,300.255,6.4e-05,0.0,0.0,0.0,4.9e-05,0.0,0.0,0.0,0.000361,2
1633034065921567085,12330,1633034065900000095,gpsRover,2,3,33.9110731538,-84.5300194272,300.259,6.4e-05,0.0,0.0,0.0,4.9e-05,0.0,0.0,0.0,0.000361,2
1633034065971553483,12331,1633034065950000048,gpsRover,2,3,33.9110731487,-84.5300194195,300.26,6.4e-05,0.0,0.0,0.0,4.9e-05,0.0,0.0,0.0,0.000361,2
1633034066023601912,12332,1633034066000000000,gpsRover,2,3,33.9110731507,-84.5300194113,300.254,6.4e-05,0.0,0.0,0.0,4.9e-05,0.0,0.0,0.0,0.000361,2
1633034066089431131,12333,1633034066049999952,gpsRover,2,3,33.9110731432,-84.530019402,300.259,6.4e-05,0.0,0.0,0.0,4.9e-05,0.0,0.0,0.0,0.000361,2
1633034066123334553,12334,1633034066099999905,gpsRover,2,3,33.9110731612,-84.530019417,300.258,6.4e-05,0.0,0.0,0.0,4.9e-05,0.0,0.0,0.0,0.000361,2
1633034066172549469,12335,1633034066150000095,gpsRover,2,3,33.9110731472,-84.5300194442,300.259,6.4e-05,0.0,0.0,0.0,4.9e-05,0.0,0.0,0.0,0.000361,2
1633034066221381859,12336,1633034066200000048,gpsRover,2,3,33.9110731397,-84.5300194112,300.252,6.4e-05,0.0,0.0,0.0,4.9e-05,0.0,0.0,0.0,0.000361,2
1633034066271340698,12337,1633034066250000000,gpsRover,2,3,33.9110731418,-84.5300193993,300.252,6.4e-05,0.0,0.0,0.0,4.9e-05,0.0,0.0,0.0,0.000361,2
1633034066322534785,12338,1633034066299999952,gpsRover,2,3,33.9110731488,-84.5300194207,300.256,6.4e-05,0.0,0.0,0.0,4.9e-05,0.0,0.0,0.0,0.000361,2
1633034066372438796,12339,1633034066349999905,gpsRover,2,3,33.9110731538,-84.530019412,300.254,6.4e-05,0.0,0.0,0.0,4.9e-05,0.0,0.0,0.0,0.000361,2
1633034066422289346,12340,1633034066400000095,gpsRover,2,3,33.911073148,-84.530019408,300.259,6.4e-05,0.0,0.0,0.0,4.9e-05,0.0,0.0,0.0,0.000361,2
1633034066472076429,12341,1633034066450000048,gpsRover,2,3,33.911073162,-84.5300194178,300.257,6.4e-05,0.0,0.0,0.0,4.9e-05,0.0,0.0,0.0,0.000361,2
1633034066522410664,12342,1633034066500000000,gpsRover,2,3,33.9110731682,-84.5300194178,300.256,6.4e-05,0.0,0.0,0.0,4.9e-05,0.0,0.0,0.0,0.000361,2
1633034066572190781,12343,1633034066549999952,gpsRover,2,3,33.9110731648,-84.5300194085,300.255,6.4e-05,0.0,0.0,0.0,4.9e-05,0.0,0.0,0.0,0.000361,2
1633034066626055616,12344,1633034066599999905,gpsRover,2,3,33.9110731395,-84.530019388,300.256,6.4e-05,0.0,0.0,0.0,4.9e-05,0.0,0.0,0.0,0.000361,2
1633034066672960277,12345,1633034066650000095,gpsRover,2,3,33.9110731603,-84.5300193588,300.255,6.4e-05,0.0,0.0,0.0,4.9e-05,0.0,0.0,0.0,0.000361,2
1633034066723058058,12346,1633034066700000048,gpsRover,2,3,33.9110731832,-84.5300193852,300.256,6.4e-05,0.0,0.0,0.0,4.9e-05,0.0,0.0,0.0,0.000361,2
1633034066771883359,12347,1633034066750000000,gpsRover,2,3,33.911073178,-84.5300193988,300.258,6.4e-05,0.0,0.0,0.0,4.9e-05,0.0,0.0,0.0,0.000361,2
1633034066821900839,12348,1633034066799999952,gpsRover,2,3,33.9110731883,-84.5300193942,300.261,6.4e-05,0.0,0.0,0.0,4.9e-05,0.0,0.0,0.0,0.000361,2
1633034066872882467,12349,1633034066849999905,gpsRover,2,3,33.9110732015,-84.5300193877,300.261,6.4e-05,0.0,0.0,0.0,4.9e-05,0.0,0.0,0.0,0.000361,2
1633034066921806731,12350,1633034066900000095,gpsRover,2,3,33.9110731945,-84.5300193937,300.259,6.4e-05,0.0,0.0,0.0,4.9e-05,0.0,0.0,0.0,0.000361,2
1633034066972897519,12351,1633034066950000048,gpsRover,2,3,33.9110731843,-84.5300193797,300.263,6.4e-05,0.0,0.0,0.0,4.9e-05,0.0,0.0,0.0,0.000361,2
1633034067022763031,12352,1633034067000000000,gpsRover,2,3,33.9110731757,-84.5300193903,300.268,6.4e-05,0.0,0.0,0.0,4.9e-05,0.0,0.0,0.0,0.000361,2
1633034067088758954,12353,1633034067049999952,gpsRover,2,3,33.9110731752,-84.5300193722,300.268,4.9e-05,0.0,0.0,0.0,4.9e-05,0.0,0.0,0.0,0.000324,2
1633034067123647823,12354,1633034067099999905,gpsRover,2,3,33.911073186,-84.5300193695,300.267,4.9e-05,0.0,0.0,0.0,4.9e-05,0.0,0.0,0.0,0.000324,2
1633034067171628711,12355,1633034067150000095,gpsRover,2,3,33.9110731908,-84.53001937,300.267,4.9e-05,0.0,0.0,0.0,4.9e-05,0.0,0.0,0.0,0.000324,2
1633034067222656073,12356,1633034067200000048,gpsRover,2,3,33.911073189,-84.5300193597,300.268,4.9e-05,0.0,0.0,0.0,4.9e-05,0.0,0.0,0.0,0.000324,2
1633034067272670563,12357,1633034067250000000,gpsRover,2,3,33.911073188,-84.5300193702,300.268,4.9e-05,0.0,0.0,0.0,4.9e-05,0.0,0.0,0.0,0.000324,2
1633034067322672400,12358,1633034067299999952,gpsRover,2,3,33.9110731872,-84.5300193608,300.264,4.9e-05,0.0,0.0,0.0,4.9e-05,0.0,0.0,0.0,0.000324,2
1633034067372420856,12359,1633034067349999905,gpsRover,2,3,33.9110731847,-84.530019384,300.263,4.9e-05,0.0,0.0,0.0,4.9e-05,0.0,0.0,0.0,0.000324,2
1633034067422459688,12360,1633034067400000095,gpsRover,2,3,33.9110731878,-84.5300193813,300.261,4.9e-05,0.0,0.0,0.0,4.9e-05,0.0,0.0,0.0,0.000324,2
1633034067471466128,12361,1633034067450000048,gpsRover,2,3,33.9110731885,-84.5300193612,300.263,4.9e-05,0.0,0.0,0.0,4.9e-05,0.0,0.0,0.0,0.000324,2
1633034067522423419,12362,1633034067500000000,gpsRover,2,3,33.91107319,-84.5300193682,300.265,4.9e-05,0.0,0.0,0.0,4.9e-05,0.0,0.0,0.0,0.000324,2
1633034067572468466,12363,1633034067549999952,gpsRover,2,3,33.9110731897,-84.5300193655,300.264,4.9e-05,0.0,0.0,0.0,4.9e-05,0.0,0.0,0.0,0.000324,2
1633034067622376985,12364,1633034067599999905,gpsRover,2,3,33.9110731737,-84.5300193785,300.266,4.9e-05,0.0,0.0,0.0,4.9e-05,0.0,0.0,0.0,0.000324,2
1633034067672402918,12365,1633034067650000095,gpsRover,2,3,33.9110731868,-84.5300193832,300.266,4.9e-05,0.0,0.0,0.0,4.9e-05,0.0,0.0,0.0,0.000324,2
1633034067726172943,12366,1633034067700000048,gpsRover,2,3,33.9110731977,-84.5300193948,300.267,4.9e-05,0.0,0.0,0.0,4.9e-05,0.0,0.0,0.0,0.000324,2
1633034067772184126,12367,1633034067750000000,gpsRover,2,3,33.9110731893,-84.5300193967,300.268,4.9e-05,0.0,0.0,0.0,4.9e-05,0.0,0.0,0.0,0.000324,2
1633034067822195965,12368,1633034067799999952,gpsRover,2,3,33.9110731923,-84.5300193997,300.262,4.9e-05,0.0,0.0,0.0,4.9e-05,0.0,0.0,0.0,0.000324,2
1633034067872126664,12369,1633034067849999905,gpsRover,2,3,33.911073191,-84.530019407,300.266,4.9e-05,0.0,0.0,0.0,4.9e-05,0.0,0.0,0.0,0.000324,2
1633034067922204244,12370,1633034067900000095,gpsRover,2,3,33.911073197,-84.5300193862,300.265,4.9e-05,0.0,0.0,0.0,4.9e-05,0.0,0.0,0.0,0.000324,2
1633034067972010724,12371,1633034067950000048,gpsRover,2,3,33.9110731835,-84.5300193918,300.259,4.9e-05,0.0,0.0,0.0,4.9e-05,0.0,0.0,0.0,0.000324,2
1633034068022968870,12372,1633034068000000000,gpsRover,2,3,33.9110731718,-84.5300194078,300.261,4.9e-05,0.0,0.0,0.0,4.9e-05,0.0,0.0,0.0,0.000324,2
1633034068088945767,12373,1633034068049999952,gpsRover,2,3,33.9110731762,-84.5300193987,300.261,4.9e-05,0.0,0.0,0.0,4.9e-05,0.0,0.0,0.0,0.000324,2
1633034068122930136,12374,1633034068099999905,gpsRover,2,3,33.9110731908,-84.5300194033,300.254,4.9e-05,0.0,0.0,0.0,4.9e-05,0.0,0.0,0.0,0.000324,2
1633034068171973502,12375,1633034068150000095,gpsRover,2,3,33.9110731648,-84.5300193977,300.257,4.9e-05,0.0,0.0,0.0,4.9e-05,0.0,0.0,0.0,0.000324,2
1633034068221837184,12376,1633034068200000048,gpsRover,2,3,33.9110731742,-84.5300194015,300.259,4.9e-05,0.0,0.0,0.0,4.9e-05,0.0,0.0,0.0,0.000324,2
1633034068272816560,12377,1633034068250000000,gpsRover,2,3,33.9110731957,-84.5300194012,300.254,4.9e-05,0.0,0.0,0.0,4.9e-05,0.0,0.0,0.0,0.000324,2
