%time,field.header.seq,field.header.stamp,field.header.frame_id,field.status.status,field.status.service,field.latitude,field.longitude,field.altitude,field.position_covariance0,field.position_covariance1,field.position_covariance2,field.position_covariance3,field.position_covariance4,field.position_covariance5,field.position_covariance6,field.position_covariance7,field.position_covariance8,field.position_covariance_type
1595530170165688987,12600,1595530170150000095,gpsRover,1,3,33.910893105,-84.530089295,300.291,0.019881,0.0,0.0,0.0,0.021316,0.0,0.0,0.0,0.088209,2
1595530170215699008,12601,1595530170200000048,gpsRover,1,3,33.9108931117,-84.53008929,300.291,0.019881,0.0,0.0,0.0,0.021316,0.0,0.0,0.0,0.088209,2
1595530170265616223,12602,1595530170250000000,gpsRover,1,3,33.910893115,-84.5300892983,300.29,0.019881,0.0,0.0,0.0,0.021316,0.0,0.0,0.0,0.088209,2
1595530170315553667,12603,1595530170299999952,gpsRover,1,3,33.9108930983,-84.530089295,300.289,0.019881,0.0,0.0,0.0,0.021316,0.0,0.0,0.0,0.088209,2
1595530170365589106,12604,1595530170349999905,gpsRover,1,3,33.9108930983,-84.5300892933,300.29,0.019881,0.0,0.0,0.0,0.021316,0.0,0.0,0.0,0.088209,2
1595530170415687487,12605,1595530170400000095,gpsRover,1,3,33.9108930967,-84.5300892783,300.289,0.019881,0.0,0.0,0.0,0.021316,0.0,0.0,0.0,0.088209,2
1595530170465393846,12606,1595530170450000048,gpsRover,1,3,33.9108930917,-84.5300892767,300.289,0.019881,0.0,0.0,0.0,0.021316,0.0,0.0,0.0,0.088209,2
1595530170515458221,12607,1595530170500000000,gpsRover,1,3,33.9108930867,-84.5300892817,300.288,0.019881,0.0,0.0,0.0,0.021316,0.0,0.0,0.0,0.088209,2
1595530170566449969,12608,1595530170549999952,gpsRover,1,3,33.910893085,-84.530089275,300.29,0.019881,0.0,0.0,0.0,0.021316,0.0,0.0,0.0,0.088209,2
1595530170615324049,12609,1595530170599999905,gpsRover,1,3,33.9108930883,-84.5300892717,300.288,0.019881,0.0,0.0,0.0,0.021316,0.0,0.0,0.0,0.088209,2
1595530170665286876,12610,1595530170650000095,gpsRover,1,3,33.9108930817,-84.5300892667,300.286,0.019881,0.0,0.0,0.0,0.021316,0.0,0.0,0.0,0.088209,2
1595530170715354967,12611,1595530170700000048,gpsRover,1,3,33.9108930767,-84.5300892683,300.287,0.019881,0.0,0.0,0.0,0.021316,0.0,0.0,0.0,0.088209,2
1595530170765242791,12612,1595530170750000000,gpsRover,1,3,33.9108930783,-84.530089275,300.29,0.019881,0.0,0.0,0.0,0.021316,0.0,0.0,0.0,0.088209,2
1595530170816199822,12613,1595530170799999952,gpsRover,1,3,33.9108930817,-84.5300892717,300.288,0.019881,0.0,0.0,0.0,0.021316,0.0,0.0,0.0,0.088209,2
1595530170865157887,12614,1595530170849999905,gpsRover,1,3,33.9108930817,-84.53008927,300.287,0.019881,0.0,0.0,0.0,0.021316,0.0,0.0,0.0,0.088209,2
1595530170916094658,12615,1595530170900000095,gpsRover,1,3,33.9108930783,-84.5300892783,300.285,0.019881,0.0,0.0,0.0,0.021316,0.0,0.0,0.0,0.088209,2
1595530170966022777,12616,1595530170950000048,gpsRover,1,3,33.9108930783,-84.5300892833,300.286,0.019881,0.0,0.0,0.0,0.021316,0.0,0.0,0.0,0.088209,2
1595530171016096089,12617,1595530171000000000,gpsRover,1,3,33.9108930733,-84.5300892817,300.287,0.019881,0.0,0.0,0.0,0.021316,0.0,0.0,0.0,0.088209,2
1595530171082144556,12618,1595530171049999952,gpsRover,1,3,33.9108930617,-84.5300892783,300.285,0.019881,0.0,0.0,0.0,0.021316,0.0,0.0,0.0,0.088209,2
1595530171115947847,12619,1595530171099999905,gpsRover,1,3,33.91089305,-84.5300892783,300.285,0.019881,0.0,0.0,0.0,0.021316,0.0,0.0,0.0,0.088209,2
1595530171165898985,12620,1595530171150000095,gpsRover,1,3,33.9108930467,-84.5300892817,300.285,0.019881,0.0,0.0,0.0,0.021316,0.0,0.0,0.0,0.088209,2
1595530171215859659,12621,1595530171200000048,gpsRover,1,3,33.9108930517,-84.5300892817,300.283,0.019881,0.0,0.0,0.0,0.021316,0.0,0.0,0.0,0.088209,2
1595530171265787573,12622,1595530171250000000,gpsRover,1,3,33.9108930383,-84.5300892833,300.284,0.019881,0.0,0.0,0.0,0.021316,0.0,0.0,0.0,0.088209,2
1595530171315799392,12623,1595530171299999952,gpsRover,1,3,33.9108930267,-84.5300892833,300.287,0.019881,0.0,0.0,0.0,0.021316,0.0,0.0,0.0,0.088209,2
1595530171365684571,12624,1595530171349999905,gpsRover,1,3,33.9108930233,-84.5300892717,300.283,0.019881,0.0,0.0,0.0,0.021316,0.0,0.0,0.0,0.088209,2
1595530171415675190,12625,1595530171400000095,gpsRover,1,3,33.9108930067,-84.53008927,300.289,0.019881,0.0,0.0,0.0,0.021316,0.0,0.0,0.0,0.088209,2
1595530171465670124,12626,1595530171450000048,gpsRover,1,3,33.9108929983,-84.530089275,300.282,0.019881,0.0,0.0,0.0,0.021316,0.0,0.0,0.0,0.088209,2
1595530171515667669,12627,1595530171500000000,gpsRover,1,3,33.9108930017,-84.5300892667,300.286,0.019881,0.0,0.0,0.0,0.021316,0.0,0.0,0.0,0.088209,2
1595530171565613252,12628,1595530171549999952,gpsRover,1,3,33.9108929983,-84.53008927,300.284,0.019881,0.0,0.0,0.0,0.021316,0.0,0.0,0.0,0.088209,2
1595530171615641058,12629,1595530171599999905,gpsRover,1,3,33.9108929967,-84.5300892717,300.287,0.019881,0.0,0.0,0.0,0.021316,0.0,0.0,0.0,0.088209,2
1595530171665592951,12630,1595530171650000095,gpsRover,1,3,33.910893,-84.5300892583,300.284,0.019881,0.0,0.0,0.0,0.021316,0.0,0.0,0.0,0.088209,2
1595530171715520013,12631,1595530171700000048,gpsRover,1,3,33.9108929967,-84.5300892583,300.283,0.019881,0.0,0.0,0.0,0.021316,0.0,0.0,0.0,0.088209,2
1595530171765375306,12632,1595530171750000000,gpsRover,1,3,33.910893,-84.5300892683,300.288,0.019881,0.0,0.0,0.0,0.021316,0.0,0.0,0.0,0.088209,2
1595530171815984821,12633,1595530171799999952,gpsRover,1,3,33.9108930017,-84.5300892683,300.286,0.019881,0.0,0.0,0.0,0.021316,0.0,0.0,0.0,0.088209,2
1595530171866280862,12634,1595530171849999905,gpsRover,1,3,33.9108929917,-84.5300892733,300.288,0.019881,0.0,0.0,0.0,0.021316,0.0,0.0,0.0,0.088209,2
1595530171915290132,12635,1595530171900000095,gpsRover,1,3,33.910892995,-84.5300892733,300.286,0.019881,0.0,0.0,0.0,0.021316,0.0,0.0,0.0,0.088209,2
1595530171965288629,12636,1595530171950000048,gpsRover,1,3,33.9108930017,-84.5300892483,300.286,0.019881,0.0,0.0,0.0,0.021316,0.0,0.0,0.0,0.088209,2
1595530172016242244,12637,1595530172000000000,gpsRover,1,3,33.9108930083,-84.5300892483,300.285,0.019881,0.0,0.0,0.0,0.021316,0.0,0.0,0.0,0.088209,2
1595530172082252592,12638,1595530172049999952,gpsRover,1,3,33.9108929967,-84.5300892617,300.287,0.019881,0.0,0.0,0.0,0.021316,0.0,0.0,0.0,0.088209,2
1595530172116106777,12639,1595530172099999905,gpsRover,1,3,33.9108929767,-84.5300892633,300.286,0.019881,0.0,0.0,0.0,0.021316,0.0,0.0,0.0,0.088209,2
1595530172165092173,12640,1595530172150000095,gpsRover,1,3,33.9108929783,-84.5300892633,300.286,0.019881,0.0,0.0,0.0,0.021316,0.0,0.0,0.0,0.088209,2
1595530172216086698,12641,1595530172200000048,gpsRover,1,3,33.9108929683,-84.5300892583,300.283,0.019881,0.0,0.0,0.0,0.021316,0.0,0.0,0.0,0.088209,2
1595530172265996997,12642,1595530172250000000,gpsRover,1,3,33.9108929667,-84.5300892467,300.284,0.019881,0.0,0.0,0.0,0.021316,0.0,0.0,0.0,0.088209,2
1595530172315020584,12643,1595530172299999952,gpsRover,1,3,33.9108929717,-84.5300892517,300.284,0.019881,0.0,0.0,0.0,0.021316,0.0,0.0,0.0,0.088209,2
1595530172365959999,12644,1595530172349999905,gpsRover,1,3,33.9108929617,-84.53008926,300.287,0.019881,0.0,0.0,0.0,0.021316,0.0,0.0,0.0,0.088209,2
1595530172414990075,12645,1595530172400000095,gpsRover,1,3,33.9108929567,-84.5300892633,300.286,0.019881,0.0,0.0,0.0,0.021316,0.0,0.0,0.0,0.088209,2
1595530172465947003,12646,1595530172450000048,gpsRover,1,3,33.9108929633,-84.530089265,300.286,0.019881,0.0,0.0,0.0,0.021316,0.0,0.0,0.0,0.088209,2
1595530172515977150,12647,1595530172500000000,gpsRover,1,3,33.9108929517,-84.5300892567,300.285,0.019881,0.0,0.0,0.0,0.021316,0.0,0.0,0.0,0.088209,2
1595530172564831921,12648,1595530172549999952,gpsRover,1,3,33.9108929533,-84.5300892567,300.283,0.019881,0.0,0.0,0.0,0.021316,0.0,0.0,0.0,0.088209,2
1595530172615836238,12649,1595530172599999905,gpsRover,1,3,33.9108929567,-84.5300892533,300.283,0.019881,0.0,0.0,0.0,0.021316,0.0,0.0,0.0,0.088209,2
1595530172665719988,12650,1595530172650000095,gpsRover,1,3,33.9108929433,-84.5300892533,300.282,0.019881,0.0,0.0,0.0,0.021316,0.0,0.0,0.0,0.088209,2
1595530172715704426,12651,1595530172700000048,gpsRover,1,3,33.9108929417,-84.530089245,300.278,0.019881,0.0,0.0,0.0,0.021316,0.0,0.0,0.0,0.088209,2
1595530172765680840,12652,1595530172750000000,gpsRover,1,3,33.910892945,-84.53008924,300.281,0.019881,0.0,0.0,0.0,0.021316,0.0,0.0,0.0,0.088209,2
1595530172815659871,12653,1595530172799999952,gpsRover,1,3,33.9108929417,-84.5300892417,300.282,0.019881,0.0,0.0,0.0,0.021316,0.0,0.0,0.0,0.088209,2
1595530172865601649,12654,1595530172849999905,gpsRover,1,3,33.910892935,-84.5300892417,300.279,0.019881,0.0,0.0,0.0,0.021316,0.0,0.0,0.0,0.088209,2
1595530172915578201,12655,1595530172900000095,gpsRover,1,3,33.91089293,-84.53008924,300.276,0.019881,0.0,0.0,0.0,0.021316,0.0,0.0,0.0,0.088209,2
1595530172965522789,12656,1595530172950000048,gpsRover,1,3,33.9108929267,-84.5300892217,300.28,0.019881,0.0,0.0,0.0,0.021316,0.0,0.0,0.0,0.088209,2
1595530173016491893,12657,1595530173000000000,gpsRover,1,3,33.9108929283,-84.5300892133,300.276,0.019881,0.0,0.0,0.0,0.021316,0.0,0.0,0.0,0.088209,2
1595530173082367772,12658,1595530173049999952,gpsRover,1,3,33.91089292,-84.530089215,300.28,0.019881,0.0,0.0,0.0,0.021316,0.0,0.0,0.0,0.088209,2
1595530173115438856,12659,1595530173099999905,gpsRover,1,3,33.9108929183,-84.53008922,300.278,0.019881,0.0,0.0,0.0,0.021316,0.0,0.0,0.0,0.088209,2
1595530173166266564,12660,1595530173150000095,gpsRover,1,3,33.91089292,-84.53008922,300.279,0.019881,0.0,0.0,0.0,0.021316,0.0,0.0,0.0,0.088209,2
1595530173215302284,12661,1595530173200000048,gpsRover,1,3,33.9108929133,-84.530089215,300.276,0.019881,0.0,0.0,0.0,0.021316,0.0,0.0,0.0,0.088209,2
1595530173265205325,12662,1595530173250000000,gpsRover,1,3,33.9108929267,-84.5300892067,300.28,0.019881,0.0,0.0,0.0,0.021316,0.0,0.0,0.0,0.088209,2
1595530173316220477,12663,1595530173299999952,gpsRover,1,3,33.9108929317,-84.5300892133,300.279,0.019881,0.0,0.0,0.0,0.021316,0.0,0.0,0.0,0.088209,2
1595530173365197684,12664,1595530173349999905,gpsRover,1,3,33.910892925,-84.53008922,300.277,0.019881,0.0,0.0,0.0,0.021316,0.0,0.0,0.0,0.088209,2
1595530173416178603,12665,1595530173400000095,gpsRover,1,3,33.9108929283,-84.5300892117,300.278,0.019881,0.0,0.0,0.0,0.021316,0.0,0.0,0.0,0.088209,2
1595530173465127495,12666,1595530173450000048,gpsRover,1,3,33.9108929317,-84.53008922,300.28,0.019881,0.0,0.0,0.0,0.021316,0.0,0.0,0.0,0.088209,2
1595530173516069809,12667,1595530173500000000,gpsRover,1,3,33.9108929283,-84.5300892167,300.278,0.019881,0.0,0.0,0.0,0.021316,0.0,0.0,0.0,0.088209,2
1595530173566089188,12668,1595530173549999952,gpsRover,1,3,33.9108929217,-84.5300892,300.28,0.019881,0.0,0.0,0.0,0.021316,0.0,0.0,0.0,0.088209,2
1595530173615033498,12669,1595530173599999905,gpsRover,1,3,33.9108929167,-84.5300892033,300.277,0.019881,0.0,0.0,0.0,0.021316,0.0,0.0,0.0,0.088209,2
1595530173665989356,12670,1595530173650000095,gpsRover,1,3,33.9108929117,-84.5300892117,300.279,0.019881,0.0,0.0,0.0,0.021316,0.0,0.0,0.0,0.088209,2
1595530173715924336,12671,1595530173700000048,gpsRover,1,3,33.9108929167,-84.5300892117,300.277,0.019881,0.0,0.0,0.0,0.021316,0.0,0.0,0.0,0.088209,2
1595530173765788846,12672,1595530173750000000,gpsRover,1,3,33.9108929233,-84.5300892117,300.28,0.019881,0.0,0.0,0.0,0.021316,0.0,0.0,0.0,0.088209,2
1595530173815830582,12673,1595530173799999952,gpsRover,1,3,33.91089292,-84.530089205,300.275,0.019881,0.0,0.0,0.0,0.021316,0.0,0.0,0.0,0.088209,2
1595530173865763472,12674,1595530173849999905,gpsRover,1,3,33.910892905,-84.5300891983,300.276,0.019881,0.0,0.0,0.0,0.021316,0.0,0.0,0.0,0.088209,2
1595530173915638012,12675,1595530173900000095,gpsRover,1,3,33.9108929017,-84.5300892083,300.277,0.019881,0.0,0.0,0.0,0.021316,0.0,0.0,0.0,0.088209,2
1595530173965615831,12676,1595530173950000048,gpsRover,1,3,33.9108929,-84.5300892183,300.276,0.019881,0.0,0.0,0.0,0.021316,0.0,0.0,0.0,0.088209,2
1595530174016670310,12677,1595530174000000000,gpsRover,1,3,33.9108928967,-84.5300892167,300.276,0.019881,0.0,0.0,0.0,0.021316,0.0,0.0,0.0,0.088209,2
1595530174082553391,12678,1595530174049999952,gpsRover,1,3,33.91089289,-84.530089215,300.278,0.019881,0.0,0.0,0.0,0.021316,0.0,0.0,0.0,0.088209,2
1595530174115567471,12679,1595530174099999905,gpsRover,1,3,33.9108928817,-84.5300892167,300.274,0.019881,0.0,0.0,0.0,0.021316,0.0,0.0,0.0,0.088209,2
1595530174165511815,12680,1595530174150000095,gpsRover,1,3,33.9108928917,-84.5300892217,300.279,0.019881,0.0,0.0,0.0,0.021316,0.0,0.0,0.0,0.088209,2
1595530174215467597,12681,1595530174200000048,gpsRover,1,3,33.91089289,-84.5300892233,300.277,0.019881,0.0,0.0,0.0,0.021316,0.0,0.0,0.0,0.088209,2
1595530174265670174,12682,1595530174250000000,gpsRover,1,3,33.9108928867,-84.53008923,300.276,0.019881,0.0,0.0,0.0,0.021316,0.0,0.0,0.0,0.088209,2
1595530174315362054,12683,1595530174299999952,gpsRover,1,3,33.91089288,-84.530089225,300.279,0.019881,0.0,0.0,0.0,0.021316,0.0,0.0,0.0,0.088209,2
1595530174366333781,12684,1595530174349999905,gpsRover,1,3,33.9108928733,-84.530089215,300.277,0.019881,0.0,0.0,0.0,0.021316,0.0,0.0,0.0,0.088209,2
1595530174415303265,12685,1595530174400000095,gpsRover,1,3,33.9108928733,-84.53008922,300.275,0.019881,0.0,0.0,0.0,0.021316,0.0,0.0,0.0,0.088209,2
1595530174466291607,12686,1595530174450000048,gpsRover,1,3,33.9108928783,-84.530089235,300.276,0.019881,0.0,0.0,0.0,0.021316,0.0,0.0,0.0,0.088209,2
1595530174515224001,12687,1595530174500000000,gpsRover,1,3,33.91089287,-84.530089225,300.275,0.019881,0.0,0.0,0.0,0.021316,0.0,0.0,0.0,0.088209,2
1595530174565127866,12688,1595530174549999952,gpsRover,1,3,33.9108928683,-84.53008922,300.273,0.019881,0.0,0.0,0.0,0.021316,0.0,0.0,0.0,0.088209,2
1595530174616075632,12689,1595530174599999905,gpsRover,1,3,33.9108928733,-84.530089225,300.273,0.019881,0.0,0.0,0.0,0.021316,0.0,0.0,0.0,0.088209,2
1595530174665042688,12690,1595530174650000095,gpsRover,1,3,33.91089287,-84.5300892267,300.276,0.019881,0.0,0.0,0.0,0.021316,0.0,0.0,0.0,0.088209,2
1595530174716037022,12691,1595530174700000048,gpsRover,1,3,33.9108928717,-84.53008924,300.275,0.019881,0.0,0.0,0.0,0.021316,0.0,0.0,0.0,0.088209,2
1595530174766158190,12692,1595530174750000000,gpsRover,1,3,33.9108928633,-84.530089235,300.275,0.019881,0.0,0.0,0.0,0.021316,0.0,0.0,0.0,0.088209,2
1595530174814926164,12693,1595530174799999952,gpsRover,1,3,33.9108928583,-84.530089225,300.277,0.019881,0.0,0.0,0.0,0.021316,0.0,0.0,0.0,0.088209,2
1595530174865810801,12694,1595530174849999905,gpsRover,1,3,33.9108928633,-84.5300892367,300.276,0.019881,0.0,0.0,0.0,0.021316,0.0,0.0,0.0,0.088209,2
1595530174915814969,12695,1595530174900000095,gpsRover,1,3,33.9108928733,-84.5300892483,300.274,0.019881,0.0,0.0,0.0,0.021316,0.0,0.0,0.0,0.088209,2
1595530174965727771,12696,1595530174950000048,gpsRover,1,3,33.910892875,-84.5300892483,300.274,0.019881,0.0,0.0,0.0,0.021316,0.0,0.0,0.0,0.088209,2
1595530175015800176,12697,1595530175000000000,gpsRover,1,3,33.9108928733,-84.53008925,300.275,0.019881,0.0,0.0,0.0,0.021316,0.0,0.0,0.0,0.088209,2
1595530175081682864,12698,1595530175049999952,gpsRover,1,3,33.9108928667,-84.530089275,300.274,0.019881,0.0,0.0,0.0,0.021316,0.0,0.0,0.0,0.088209,2
1595530175115676632,12699,1595530175099999905,gpsRover,1,3,33.9108928617,-84.5300892783,300.27,0.019881,0.0,0.0,0.0,0.021316,0.0,0.0,0.0,0.088209,2
1595530175165641290,12700,1595530175150000095,gpsRover,1,3,33.9108928717,-84.5300892683,300.274,0.019881,0.0,0.0,0.0,0.021316,0.0,0.0,0.0,0.088209,2
1595530175215538930,12701,1595530175200000048,gpsRover,1,3,33.9108928733,-84.53008928,300.271,0.019881,0.0,0.0,0.0,0.021316,0.0,0.0,0.0,0.088209,2
1595530175265525233,12702,1595530175250000000,gpsRover,1,3,33.9108928667,-84.5300892867,300.272,0.019881,0.0,0.0,0.0,0.021316,0.0,0.0,0.0,0.088209,2
1595530175315524217,12703,1595530175299999952,gpsRover,1,3,33.910892865,-84.5300892733,300.269,0.019881,0.0,0.0,0.0,0.021316,0.0,0.0,0.0,0.088209,2
1595530175365404534,12704,1595530175349999905,gpsRover,1,3,33.9108928717,-84.530089265,300.27,0.019881,0.0,0.0,0.0,0.021316,0.0,0.0,0.0,0.088209,2
1595530175416405013,12705,1595530175400000095,gpsRover,1,3,33.910892865,-84.530089255,300.269,0.019881,0.0,0.0,0.0,0.021316,0.0,0.0,0.0,0.088209,2
1595530175465740960,12706,1595530175450000048,gpsRover,1,3,33.9108928617,-84.5300892567,300.268,0.019881,0.0,0.0,0.0,0.021316,0.0,0.0,0.0,0.088209,2
1595530175515322615,12707,1595530175500000000,gpsRover,1,3,33.9108928567,-84.5300892767,300.27,0.019881,0.0,0.0,0.0,0.021316,0.0,0.0,0.0,0.088209,2
1595530175565336650,12708,1595530175549999952,gpsRover,1,3,33.9108928567,-84.5300892883,300.27,0.019881,0.0,0.0,0.0,0.021316,0.0,0.0,0.0,0.088209,2
1595530175615287993,12709,1595530175599999905,gpsRover,1,3,33.9108928567,-84.53008929,300.271,0.019881,0.0,0.0,0.0,0.021316,0.0,0.0,0.0,0.088209,2
1595530175666249666,12710,1595530175650000095,gpsRover,1,3,33.9108928617,-84.5300892867,300.273,0.019881,0.0,0.0,0.0,0.021316,0.0,0.0,0.0,0.088209,2
1595530175715383647,12711,1595530175700000048,gpsRover,1,3,33.9108928583,-84.5300892867,300.271,0.019881,0.0,0.0,0.0,0.021316,0.0,0.0,0.0,0.088209,2
1595530175765099415,12712,1595530175750000000,gpsRover,1,3,33.9108928517,-84.5300892983,300.272,0.019881,0.0,0.0,0.0,0.021316,0.0,0.0,0.0,0.088209,2
1595530175816108364,12713,1595530175799999952,gpsRover,1,3,33.9108928617,-84.5300892883,300.268,0.019881,0.0,0.0,0.0,0.021316,0.0,0.0,0.0,0.088209,2
1595530175865031105,12714,1595530175849999905,gpsRover,1,3,33.9108928617,-84.5300892817,300.271,0.019881,0.0,0.0,0.0,0.021316,0.0,0.0,0.0,0.088209,2
1595530175915968030,12715,1595530175900000095,gpsRover,1,3,33.9108928533,-84.5300892917,300.273,0.019881,0.0,0.0,0.0,0.021316,0.0,0.0,0.0,0.088209,2
1595530175965923221,12716,1595530175950000048,gpsRover,1,3,33.9108928517,-84.5300892967,300.27,0.019881,0.0,0.0,0.0,0.021316,0.0,0.0,0.0,0.088209,2
1595530176016852485,12717,1595530176000000000,gpsRover,1,3,33.9108928567,-84.5300893083,300.272,0.019881,0.0,0.0,0.0,0.021316,0.0,0.0,0.0,0.088209,2
1595530176082816191,12718,1595530176049999952,gpsRover,1,3,33.9108928517,-84.5300893133,300.269,0.019881,0.0,0.0,0.0,0.021316,0.0,0.0,0.0,0.088209,2
1595530176114858356,12719,1595530176099999905,gpsRover,1,3,33.9108928533,-84.5300893067,300.268,0.019881,0.0,0.0,0.0,0.021316,0.0,0.0,0.0,0.088209,2
1595530176165820551,12720,1595530176150000095,gpsRover,1,3,33.9108928517,-84.5300893117,300.271,0.019881,0.0,0.0,0.0,0.021316,0.0,0.0,0.0,0.088209,2
1595530176215726985,12721,1595530176200000048,gpsRover,1,3,33.9108928417,-84.530089305,300.268,0.019881,0.0,0.0,0.0,0.021316,0.0,0.0,0.0,0.088209,2
1595530176265692237,12722,1595530176250000000,gpsRover,1,3,33.9108928417,-84.530089295,300.266,0.019881,0.0,0.0,0.0,0.021316,0.0,0.0,0.0,0.088209,2
1595530176315648192,12723,1595530176299999952,gpsRover,1,3,33.9108928333,-84.5300892933,300.27,0.019881,0.0,0.0,0.0,0.021316,0.0,0.0,0.0,0.088209,2
1595530176365596338,12724,1595530176349999905,gpsRover,1,3,33.9108928333,-84.5300892967,300.269,0.019881,0.0,0.0,0.0,0.021316,0.0,0.0,0.0,0.088209,2
1595530176415628899,12725,1595530176400000095,gpsRover,1,3,33.9108928417,-84.53008932,300.269,0.019881,0.0,0.0,0.0,0.021316,0.0,0.0,0.0,0.088209,2
1595530176465516598,12726,1595530176450000048,gpsRover,1,3,33.9108928433,-84.5300893333,300.267,0.019881,0.0,0.0,0.0,0.021316,0.0,0.0,0.0,0.088209,2
1595530176515612009,12727,1595530176500000000,gpsRover,1,3,33.9108928333,-84.5300893267,300.267,0.019881,0.0,0.0,0.0,0.021316,0.0,0.0,0.0,0.088209,2
1595530176565480761,12728,1595530176549999952,gpsRover,1,3,33.910892845,-84.5300893117,300.269,0.019881,0.0,0.0,0.0,0.021316,0.0,0.0,0.0,0.088209,2
1595530176615411001,12729,1595530176599999905,gpsRover,1,3,33.9108928433,-84.53008931,300.267,0.019881,0.0,0.0,0.0,0.021316,0.0,0.0,0.0,0.088209,2
1595530176665368037,12730,1595530176650000095,gpsRover,1,3,33.9108928283,-84.530089315,300.268,0.019881,0.0,0.0,0.0,0.021316,0.0,0.0,0.0,0.088209,2
1595530176716335748,12731,1595530176700000048,gpsRover,1,3,33.9108928283,-84.53008932,300.271,0.019881,0.0,0.0,0.0,0.021316,0.0,0.0,0.0,0.088209,2
1595530176765227974,12732,1595530176750000000,gpsRover,1,3,33.91089283,-84.5300893217,300.264,0.019881,0.0,0.0,0.0,0.021316,0.0,0.0,0.0,0.088209,2
1595530176815233136,12733,1595530176799999952,gpsRover,1,3,33.910892815,-84.5300893417,300.265,0.019881,0.0,0.0,0.0,0.021316,0.0,0.0,0.0,0.088209,2
1595530176866211100,12734,1595530176849999905,gpsRover,1,3,33.9108928067,-84.53008935,300.27,0.019881,0.0,0.0,0.0,0.021316,0.0,0.0,0.0,0.088209,2
1595530176915170629,12735,1595530176900000095,gpsRover,1,3,33.9108928117,-84.5300893383,300.263,0.019881,0.0,0.0,0.0,0.021316,0.0,0.0,0.0,0.088209,2
1595530176966277328,12736,1595530176950000048,gpsRover,1,3,33.910892825,-84.5300893383,300.267,0.019881,0.0,0.0,0.0,0.021316,0.0,0.0,0.0,0.088209,2
1595530177016091759,12737,1595530177000000000,gpsRover,1,3,33.91089282,-84.53008934,300.268,0.019881,0.0,0.0,0.0,0.021316,0.0,0.0,0.0,0.088209,2
1595530177082044688,12738,1595530177049999952,gpsRover,1,3,33.910892795,-84.5300893417,300.264,0.019881,0.0,0.0,0.0,0.021316,0.0,0.0,0.0,0.088209,2
1595530177115952305,12739,1595530177099999905,gpsRover,1,3,33.9108927967,-84.53008934,300.265,0.019881,0.0,0.0,0.0,0.021316,0.0,0.0,0.0,0.088209,2
1595530177165009119,12740,1595530177150000095,gpsRover,1,3,33.9108927917,-84.5300893517,300.267,0.019881,0.0,0.0,0.0,0.021316,0.0,0.0,0.0,0.088209,2
1595530177215851618,12741,1595530177200000048,gpsRover,1,3,33.9108927733,-84.5300893517,300.264,0.019881,0.0,0.0,0.0,0.021316,0.0,0.0,0.0,0.088209,2
1595530177265849273,12742,1595530177250000000,gpsRover,1,3,33.91089278,-84.5300893367,300.264,0.019881,0.0,0.0,0.0,0.021316,0.0,0.0,0.0,0.088209,2
1595530177315848763,12743,1595530177299999952,gpsRover,1,3,33.9108927867,-84.530089355,300.265,0.019881,0.0,0.0,0.0,0.021316,0.0,0.0,0.0,0.088209,2
1595530177365756843,12744,1595530177349999905,gpsRover,1,3,33.9108927817,-84.5300893683,300.267,0.019881,0.0,0.0,0.0,0.021316,0.0,0.0,0.0,0.088209,2
1595530177415887781,12745,1595530177400000095,gpsRover,1,3,33.9108927817,-84.5300893533,300.264,0.019881,0.0,0.0,0.0,0.021316,0.0,0.0,0.0,0.088209,2
1595530177466228027,12746,1595530177450000048,gpsRover,1,3,33.910892775,-84.5300893483,300.269,0.019881,0.0,0.0,0.0,0.021316,0.0,0.0,0.0,0.088209,2
1595530177515636490,12747,1595530177500000000,gpsRover,1,3,33.91089277,-84.5300893533,300.265,0.019881,0.0,0.0,0.0,0.021316,0.0,0.0,0.0,0.088209,2
1595530177565711828,12748,1595530177549999952,gpsRover,1,3,33.910892765,-84.5300893583,300.265,0.019881,0.0,0.0,0.0,0.021316,0.0,0.0,0.0,0.088209,2
1595530177615576514,12749,1595530177599999905,gpsRover,1,3,33.9108927583,-84.5300893467,300.264,0.019881,0.0,0.0,0.0,0.021316,0.0,0.0,0.0,0.088209,2
1595530177665535757,12750,1595530177650000095,gpsRover,1,3,33.9108927617,-84.5300893367,300.265,0.019881,0.0,0.0,0.0,0.021316,0.0,0.0,0.0,0.088209,2
1595530177715612074,12751,1595530177700000048,gpsRover,1,3,33.9108927667,-84.530089345,300.265,0.019881,0.0,0.0,0.0,0.021316,0.0,0.0,0.0,0.088209,2
1595530177765457528,12752,1595530177750000000,gpsRover,1,3,33.91089276,-84.5300893467,300.265,0.019881,0.0,0.0,0.0,0.021316,0.0,0.0,0.0,0.088209,2
1595530177815469838,12753,1595530177799999952,gpsRover,1,3,33.9108927617,-84.5300893467,300.266,0.019881,0.0,0.0,0.0,0.021316,0.0,0.0,0.0,0.088209,2
1595530177865400122,12754,1595530177849999905,gpsRover,1,3,33.9108927617,-84.53008935,300.263,0.019881,0.0,0.0,0.0,0.021316,0.0,0.0,0.0,0.088209,2
1595530177916431137,12755,1595530177900000095,gpsRover,1,3,33.9108927567,-84.5300893533,300.263,0.019881,0.0,0.0,0.0,0.021316,0.0,0.0,0.0,0.088209,2
1595530177965351229,12756,1595530177950000048,gpsRover,1,3,33.9108927483,-84.5300893383,300.261,0.019881,0.0,0.0,0.0,0.021316,0.0,0.0,0.0,0.088209,2
1595530178016293595,12757,1595530178000000000,gpsRover,1,3,33.9108927483,-84.5300893433,300.261,0.019881,0.0,0.0,0.0,0.021316,0.0,0.0,0.0,0.088209,2
1595530178082229067,12758,1595530178049999952,gpsRover,1,3,33.91089274,-84.5300893467,300.262,0.019881,0.0,0.0,0.0,0.021316,0.0,0.0,0.0,0.088209,2
1595530178115193824,12759,1595530178099999905,gpsRover,1,3,33.9108927317,-84.5300893383,300.259,0.019881,0.0,0.0,0.0,0.021316,0.0,0.0,0.0,0.088209,2
1595530178166072880,12760,1595530178150000095,gpsRover,1,3,33.91089273,-84.5300893533,300.259,0.019881,0.0,0.0,0.0,0.021316,0.0,0.0,0.0,0.088209,2
1595530178215076439,12761,1595530178200000048,gpsRover,1,3,33.9108927267,-84.530089355,300.258,0.019881,0.0,0.0,0.0,0.021316,0.0,0.0,0.0,0.088209,2
1595530178266020141,12762,1595530178250000000,gpsRover,1,3,33.9108927167,-84.53008936,300.261,0.019881,0.0,0.0,0.0,0.021316,0.0,0.0,0.0,0.088209,2
1595530178315960096,12763,1595530178299999952,gpsRover,1,3,33.9108927133,-84.5300893517,300.257,0.019881,0.0,0.0,0.0,0.021316,0.0,0.0,0.0,0.088209,2
1595530178364861785,12764,1595530178349999905,gpsRover,1,3,33.9108927233,-84.5300893517,300.259,0.019881,0.0,0.0,0.0,0.021316,0.0,0.0,0.0,0.088209,2
1595530178415899049,12765,1595530178400000095,gpsRover,1,3,33.9108927183,-84.530089355,300.258,0.019881,0.0,0.0,0.0,0.021316,0.0,0.0,0.0,0.088209,2
1595530178465854166,12766,1595530178450000048,gpsRover,1,3,33.9108927083,-84.5300893317,300.257,0.019881,0.0,0.0,0.0,0.021316,0.0,0.0,0.0,0.088209,2
1595530178515835900,12767,1595530178500000000,gpsRover,1,3,33.9108927083,-84.53008934,300.253,0.019881,0.0,0.0,0.0,0.021316,0.0,0.0,0.0,0.088209,2
1595530178565712412,12768,1595530178549999952,gpsRover,1,3,33.910892715,-84.5300893417,300.258,0.019881,0.0,0.0,0.0,0.021316,0.0,0.0,0.0,0.088209,2
1595530178615717230,12769,1595530178599999905,gpsRover,1,3,33.910892695,-84.5300893417,300.255,0.019881,0.0,0.0,0.0,0.021316,0.0,0.0,0.0,0.088209,2
1595530178665656119,12770,1595530178650000095,gpsRover,1,3,33.9108926933,-84.5300893383,300.256,0.019881,0.0,0.0,0.0,0.021316,0.0,0.0,0.0,0.088209,2
1595530178715649269,12771,1595530178700000048,gpsRover,1,3,33.9108927067,-84.530089335,300.256,0.019881,0.0,0.0,0.0,0.021316,0.0,0.0,0.0,0.088209,2
1595530178765636971,12772,1595530178750000000,gpsRover,1,3,33.9108927033,-84.5300893283,300.255,0.019881,0.0,0.0,0.0,0.021316,0.0,0.0,0.0,0.088209,2
1595530178815588456,12773,1595530178799999952,gpsRover,1,3,33.91089269,-84.5300893367,300.251,0.019881,0.0,0.0,0.0,0.021316,0.0,0.0,0.0,0.088209,2
1595530178865518007,12774,1595530178849999905,gpsRover,1,3,33.9108926917,-84.5300893433,300.255,0.019881,0.0,0.0,0.0,0.021316,0.0,0.0,0.0,0.088209,2
1595530178915569414,12775,1595530178900000095,gpsRover,1,3,33.9108927017,-84.5300893333,300.252,0.019881,0.0,0.0,0.0,0.021316,0.0,0.0,0.0,0.088209,2
1595530178965521304,12776,1595530178950000048,gpsRover,1,3,33.910892695,-84.5300893383,300.252,0.019881,0.0,0.0,0.0,0.021316,0.0,0.0,0.0,0.088209,2
1595530179016490557,12777,1595530179000000000,gpsRover,1,3,33.9108926867,-84.5300893433,300.253,0.019881,0.0,0.0,0.0,0.021316,0.0,0.0,0.0,0.088209,2
1595530179082423755,12778,1595530179049999952,gpsRover,1,3,33.9108926817,-84.5300893483,300.25,0.019881,0.0,0.0,0.0,0.021316,0.0,0.0,0.0,0.088209,2
1595530179115312235,12779,1595530179099999905,gpsRover,1,3,33.9108926717,-84.530089355,300.25,0.019881,0.0,0.0,0.0,0.021316,0.0,0.0,0.0,0.088209,2
1595530179165289725,12780,1595530179150000095,gpsRover,1,3,33.910892675,-84.5300893517,300.25,0.019881,0.0,0.0,0.0,0.021316,0.0,0.0,0.0,0.088209,2
1595530179216236711,12781,1595530179200000048,gpsRover,1,3,33.910892685,-84.5300893483,300.252,0.019881,0.0,0.0,0.0,0.021316,0.0,0.0,0.0,0.088209,2
1595530179265180625,12782,1595530179250000000,gpsRover,1,3,33.9108926833,-84.5300893533,300.248,0.019881,0.0,0.0,0.0,0.021316,0.0,0.0,0.0,0.088209,2
1595530179316158046,12783,1595530179299999952,gpsRover,1,3,33.9108926883,-84.5300893583,300.251,0.019881,0.0,0.0,0.0,0.021316,0.0,0.0,0.0,0.088209,2
1595530179366095590,12784,1595530179349999905,gpsRover,1,3,33.910892685,-84.5300893433,300.249,0.019881,0.0,0.0,0.0,0.021316,0.0,0.0,0.0,0.088209,2
1595530179415136701,12785,1595530179400000095,gpsRover,1,3,33.9108926683,-84.53008934,300.246,0.019881,0.0,0.0,0.0,0.021316,0.0,0.0,0.0,0.088209,2
1595530179466074337,12786,1595530179450000048,gpsRover,1,3,33.9108926683,-84.530089345,300.248,0.019881,0.0,0.0,0.0,0.021316,0.0,0.0,0.0,0.088209,2
1595530179515042811,12787,1595530179500000000,gpsRover,1,3,33.9108926767,-84.530089355,300.247,0.019881,0.0,0.0,0.0,0.021316,0.0,0.0,0.0,0.088209,2
1595530179565901660,12788,1595530179549999952,gpsRover,1,3,33.910892675,-84.5300893633,300.243,0.019881,0.0,0.0,0.0,0.021316,0.0,0.0,0.0,0.088209,2
1595530179615968004,12789,1595530179599999905,gpsRover,1,3,33.91089267,-84.5300893667,300.245,0.019881,0.0,0.0,0.0,0.021316,0.0,0.0,0.0,0.088209,2
1595530179664922624,12790,1595530179650000095,gpsRover,1,3,33.910892655,-84.5300893567,300.245,0.019881,0.0,0.0,0.0,0.021316,0.0,0.0,0.0,0.088209,2
1595530179715887536,12791,1595530179700000048,gpsRover,1,3,33.910892665,-84.5300893467,300.246,0.019881,0.0,0.0,0.0,0.021316,0.0,0.0,0.0,0.088209,2
1595530179765775615,12792,1595530179750000000,gpsRover,1,3,33.9108926767,-84.5300893583,300.244,0.019881,0.0,0.0,0.0,0.021316,0.0,0.0,0.0,0.088209,2
1595530179815900690,12793,1595530179799999952,gpsRover,1,3,33.91089268,-84.530089365,300.245,0.019881,0.0,0.0,0.0,0.021316,0.0,0.0,0.0,0.088209,2
1595530179865697524,12794,1595530179849999905,gpsRover,1,3,33.9108926883,-84.530089355,300.243,0.019881,0.0,0.0,0.0,0.021316,0.0,0.0,0.0,0.088209,2
1595530179915669902,12795,1595530179900000095,gpsRover,1,3,33.910892675,-84.530089345,300.238,0.019881,0.0,0.0,0.0,0.021316,0.0,0.0,0.0,0.088209,2
1595530179965729745,12796,1595530179950000048,gpsRover,1,3,33.910892665,-84.5300893433,300.241,0.019881,0.0,0.0,0.0,0.021316,0.0,0.0,0.0,0.088209,2
1595530180016619700,12797,1595530180000000000,gpsRover,1,3,33.910892675,-84.5300893633,300.242,0.019881,0.0,0.0,0.0,0.021316,0.0,0.0,0.0,0.088209,2
1595530180081522594,12798,1595530180049999952,gpsRover,1,3,33.9108926783,-84.530089365,300.241,0.019881,0.0,0.0,0.0,0.021316,0.0,0.0,0.0,0.088209,2
1595530180115544796,12799,1595530180099999905,gpsRover,1,3,33.9108926617,-84.530089355,300.239,0.019881,0.0,0.0,0.0,0.021316,0.0,0.0,0.0,0.088209,2
1595530180165376303,12800,1595530180150000095,gpsRover,1,3,33.9108926433,-84.530089345,300.235,0.019881,0.0,0.0,0.0,0.021316,0.0,0.0,0.0,0.088209,2
1595530180215470548,12801,1595530180200000048,gpsRover,1,3,33.9108925717,-84.5300892817,300.23,0.019881,0.0,0.0,0.0,0.021316,0.0,0.0,0.0,0.088209,2
1595530180265310886,12802,1595530180250000000,gpsRover,1,3,33.9108924033,-84.530089045,300.23,0.019881,0.0,0.0,0.0,0.021316,0.0,0.0,0.0,0.088209,2
1595530180315328081,12803,1595530180299999952,gpsRover,1,3,33.9108921617,-84.530088715,300.228,0.019881,0.0,0.0,0.0,0.021316,0.0,0.0,0.0,0.088209,2
1595530180365224727,12804,1595530180349999905,gpsRover,1,3,33.9108918733,-84.5300883533,300.228,0.019881,0.0,0.0,0.0,0.021316,0.0,0.0,0.0,0.088209,2
1595530180416225558,12805,1595530180400000095,gpsRover,1,3,33.9108915,-84.53008788,300.229,0.019881,0.0,0.0,0.0,0.021316,0.0,0.0,0.0,0.088209,2
1595530180465204537,12806,1595530180450000048,gpsRover,1,3,33.9108910583,-84.5300873567,300.23,0.019881,0.0,0.0,0.0,0.021316,0.0,0.0,0.0,0.088209,2
1595530180516250793,12807,1595530180500000000,gpsRover,1,3,33.9108905833,-84.5300867533,300.226,0.019881,0.0,0.0,0.0,0.021316,0.0,0.0,0.0,0.088209,2
1595530180566062294,12808,1595530180549999952,gpsRover,1,3,33.9108900767,-84.53008608,300.229,0.019881,0.0,0.0,0.0,0.021316,0.0,0.0,0.0,0.088209,2
1595530180615105805,12809,1595530180599999905,gpsRover,1,3,33.9108895717,-84.53008542,300.224,0.019881,0.0,0.0,0.0,0.021316,0.0,0.0,0.0,0.088209,2
1595530180666097006,12810,1595530180650000095,gpsRover,1,3,33.91088909,-84.5300847933,300.225,0.019881,0.0,0.0,0.0,0.021316,0.0,0.0,0.0,0.088209,2
1595530180715096880,12811,1595530180700000048,gpsRover,1,3,33.910888605,-84.5300841817,300.221,0.019881,0.0,0.0,0.0,0.021316,0.0,0.0,0.0,0.088209,2
1595530180765962470,12812,1595530180750000000,gpsRover,1,3,33.9108881267,-84.5300835717,300.226,0.019881,0.0,0.0,0.0,0.021316,0.0,0.0,0.0,0.088209,2
1595530180815931298,12813,1595530180799999952,gpsRover,1,3,33.9108876417,-84.5300829633,300.221,0.019881,0.0,0.0,0.0,0.021316,0.0,0.0,0.0,0.088209,2
1595530180865888266,12814,1595530180849999905,gpsRover,1,3,33.910887175,-84.5300823433,300.221,0.019881,0.0,0.0,0.0,0.021316,0.0,0.0,0.0,0.088209,2
1595530180915869794,12815,1595530180900000095,gpsRover,1,3,33.9108867333,-84.5300817533,300.217,0.019881,0.0,0.0,0.0,0.021316,0.0,0.0,0.0,0.088209,2
1595530180965760922,12816,1595530180950000048,gpsRover,1,3,33.9108863017,-84.5300811583,300.221,0.019881,0.0,0.0,0.0,0.021316,0.0,0.0,0.0,0.088209,2
1595530181016786182,12817,1595530181000000000,gpsRover,1,3,33.9108858567,-84.53008056,300.218,0.019881,0.0,0.0,0.0,0.021316,0.0,0.0,0.0,0.088209,2
1595530181082829580,12818,1595530181049999952,gpsRover,1,3,33.9108854133,-84.530080015,300.219,0.019881,0.0,0.0,0.0,0.021316,0.0,0.0,0.0,0.088209,2
1595530181115686705,12819,1595530181099999905,gpsRover,1,3,33.910884985,-84.5300794717,300.217,0.019881,0.0,0.0,0.0,0.021316,0.0,0.0,0.0,0.088209,2
1595530181165573240,12820,1595530181150000095,gpsRover,1,3,33.9108845483,-84.530078955,300.212,0.019881,0.0,0.0,0.0,0.021316,0.0,0.0,0.0,0.088209,2
1595530181215667991,12821,1595530181200000048,gpsRover,1,3,33.91088412,-84.53007843,300.215,0.019881,0.0,0.0,0.0,0.021316,0.0,0.0,0.0,0.088209,2
1595530181265511773,12822,1595530181250000000,gpsRover,1,3,33.91088371,-84.5300778817,300.213,0.019881,0.0,0.0,0.0,0.021316,0.0,0.0,0.0,0.088209,2
1595530181315468051,12823,1595530181299999952,gpsRover,1,3,33.91088331,-84.5300773467,300.209,0.019881,0.0,0.0,0.0,0.021316,0.0,0.0,0.0,0.088209,2
1595530181365501418,12824,1595530181349999905,gpsRover,1,3,33.91088291,-84.5300768283,300.21,0.019881,0.0,0.0,0.0,0.021316,0.0,0.0,0.0,0.088209,2
1595530181415362741,12825,1595530181400000095,gpsRover,1,3,33.9108825267,-84.5300763333,300.211,0.019881,0.0,0.0,0.0,0.021316,0.0,0.0,0.0,0.088209,2
1595530181466337889,12826,1595530181450000048,gpsRover,1,3,33.9108822083,-84.5300758283,300.223,0.019881,0.0,0.0,0.0,0.021316,0.0,0.0,0.0,0.088209,2
1595530181515337040,12827,1595530181500000000,gpsRover,1,3,33.910881905,-84.5300753733,300.217,0.019881,0.0,0.0,0.0,0.021316,0.0,0.0,0.0,0.088209,2
1595530181565296354,12828,1595530181549999952,gpsRover,1,3,33.91088159,-84.5300750133,300.211,0.019881,0.0,0.0,0.0,0.021316,0.0,0.0,0.0,0.088209,2
1595530181615239456,12829,1595530181599999905,gpsRover,1,3,33.9108813117,-84.530074695,300.215,0.019881,0.0,0.0,0.0,0.021316,0.0,0.0,0.0,0.088209,2
1595530181665223307,12830,1595530181650000095,gpsRover,1,3,33.9108810883,-84.530074405,300.208,0.019881,0.0,0.0,0.0,0.021316,0.0,0.0,0.0,0.088209,2
1595530181716159875,12831,1595530181700000048,gpsRover,1,3,33.9108809067,-84.53007415,300.206,0.019881,0.0,0.0,0.0,0.021316,0.0,0.0,0.0,0.088209,2
1595530181765095058,12832,1595530181750000000,gpsRover,1,3,33.9108807317,-84.5300739167,300.203,0.019881,0.0,0.0,0.0,0.021316,0.0,0.0,0.0,0.088209,2
1595530181816182370,12833,1595530181799999952,gpsRover,1,3,33.9108805517,-84.5300737033,300.204,0.019881,0.0,0.0,0.0,0.021316,0.0,0.0,0.0,0.088209,2
1595530181865997342,12834,1595530181849999905,gpsRover,1,3,33.9108803933,-84.53007352,300.203,0.019881,0.0,0.0,0.0,0.021316,0.0,0.0,0.0,0.088209,2
1595530181915118872,12835,1595530181900000095,gpsRover,1,3,33.9108802767,-84.5300733567,300.202,0.019881,0.0,0.0,0.0,0.021316,0.0,0.0,0.0,0.088209,2
1595530181965903060,12836,1595530181950000048,gpsRover,1,3,33.9108801533,-84.530073185,300.2,0.019881,0.0,0.0,0.0,0.021316,0.0,0.0,0.0,0.088209,2
1595530182015989337,12837,1595530182000000000,gpsRover,1,3,33.9108800283,-84.5300730067,300.199,0.019881,0.0,0.0,0.0,0.021316,0.0,0.0,0.0,0.088209,2
1595530182081843681,12838,1595530182049999952,gpsRover,1,3,33.9108799167,-84.5300728583,300.2,0.019881,0.0,0.0,0.0,0.021316,0.0,0.0,0.0,0.088209,2
1595530182115814305,12839,1595530182099999905,gpsRover,1,3,33.9108797983,-84.5300727283,300.196,0.019881,0.0,0.0,0.0,0.021316,0.0,0.0,0.0,0.088209,2
1595530182165745087,12840,1595530182150000095,gpsRover,1,3,33.9108796867,-84.5300725767,300.195,0.019881,0.0,0.0,0.0,0.021316,0.0,0.0,0.0,0.088209,2
1595530182215792627,12841,1595530182200000048,gpsRover,1,3,33.9108795867,-84.5300724317,300.198,0.019881,0.0,0.0,0.0,0.021316,0.0,0.0,0.0,0.088209,2
1595530182265701144,12842,1595530182250000000,gpsRover,1,3,33.9108794817,-84.5300723083,300.195,0.019881,0.0,0.0,0.0,0.021316,0.0,0.0,0.0,0.088209,2
1595530182315679802,12843,1595530182299999952,gpsRover,1,3,33.9108793783,-84.530072195,300.193,0.019881,0.0,0.0,0.0,0.021316,0.0,0.0,0.0,0.088209,2
1595530182365625696,12844,1595530182349999905,gpsRover,1,3,33.9108792967,-84.5300720833,300.192,0.019881,0.0,0.0,0.0,0.021316,0.0,0.0,0.0,0.088209,2
1595530182415573881,12845,1595530182400000095,gpsRover,1,3,33.9108792267,-84.530071965,300.191,0.019881,0.0,0.0,0.0,0.021316,0.0,0.0,0.0,0.088209,2
1595530182465435415,12846,1595530182450000048,gpsRover,1,3,33.9108791483,-84.5300718667,300.191,0.019881,0.0,0.0,0.0,0.021316,0.0,0.0,0.0,0.088209,2
1595530182515509515,12847,1595530182500000000,gpsRover,1,3,33.9108790667,-84.5300717883,300.189,0.019881,0.0,0.0,0.0,0.021316,0.0,0.0,0.0,0.088209,2
1595530182565479696,12848,1595530182549999952,gpsRover,1,3,33.9108789867,-84.5300716883,300.191,0.019881,0.0,0.0,0.0,0.021316,0.0,0.0,0.0,0.088209,2
1595530182615456930,12849,1595530182599999905,gpsRover,1,3,33.9108789117,-84.5300715733,300.185,0.019881,0.0,0.0,0.0,0.021316,0.0,0.0,0.0,0.088209,2
1595530182665362432,12850,1595530182650000095,gpsRover,1,3,33.9108788433,-84.5300714783,300.187,0.019881,0.0,0.0,0.0,0.021316,0.0,0.0,0.0,0.088209,2
1595530182715359182,12851,1595530182700000048,gpsRover,1,3,33.9108787817,-84.5300714083,300.185,0.019881,0.0,0.0,0.0,0.021316,0.0,0.0,0.0,0.088209,2
1595530182766286669,12852,1595530182750000000,gpsRover,1,3,33.9108787333,-84.5300713217,300.185,0.019881,0.0,0.0,0.0,0.021316,0.0,0.0,0.0,0.088209,2
1595530182815265394,12853,1595530182799999952,gpsRover,1,3,33.9108786783,-84.53007125,300.184,0.019881,0.0,0.0,0.0,0.021316,0.0,0.0,0.0,0.088209,2
1595530182865210357,12854,1595530182849999905,gpsRover,1,3,33.910878615,-84.53007119,300.183,0.019881,0.0,0.0,0.0,0.021316,0.0,0.0,0.0,0.088209,2
1595530182916230980,12855,1595530182900000095,gpsRover,1,3,33.910878565,-84.5300711333,300.183,0.019881,0.0,0.0,0.0,0.021316,0.0,0.0,0.0,0.088209,2
1595530182965162529,12856,1595530182950000048,gpsRover,1,3,33.9108785167,-84.5300710767,300.182,0.019881,0.0,0.0,0.0,0.021316,0.0,0.0,0.0,0.088209,2
1595530183016155059,12857,1595530183000000000,gpsRover,1,3,33.9108784633,-84.53007101,300.181,0.019881,0.0,0.0,0.0,0.021316,0.0,0.0,0.0,0.088209,2
1595530183082117737,12858,1595530183049999952,gpsRover,1,3,33.9108784233,-84.5300709583,300.181,0.019881,0.0,0.0,0.0,0.021316,0.0,0.0,0.0,0.088209,2
1595530183116084373,12859,1595530183099999905,gpsRover,1,3,33.9108783867,-84.53007091,300.181,0.019881,0.0,0.0,0.0,0.021316,0.0,0.0,0.0,0.088209,2
1595530183165921637,12860,1595530183150000095,gpsRover,1,3,33.9108783433,-84.53007087,300.181,0.019881,0.0,0.0,0.0,0.021316,0.0,0.0,0.0,0.088209,2
1595530183214879850,12861,1595530183200000048,gpsRover,1,3,33.9108782967,-84.5300708267,300.178,0.019881,0.0,0.0,0.0,0.021316,0.0,0.0,0.0,0.088209,2
1595530183265820396,12862,1595530183250000000,gpsRover,1,3,33.91087826,-84.5300707817,300.181,0.019881,0.0,0.0,0.0,0.021316,0.0,0.0,0.0,0.088209,2
1595530183315805342,12863,1595530183299999952,gpsRover,1,3,33.91087823,-84.53007074,300.179,0.019881,0.0,0.0,0.0,0.021316,0.0,0.0,0.0,0.088209,2
1595530183365749123,12864,1595530183349999905,gpsRover,1,3,33.9108781883,-84.5300706883,300.177,0.019881,0.0,0.0,0.0,0.021316,0.0,0.0,0.0,0.088209,2
1595530183415727048,12865,1595530183400000095,gpsRover,1,3,33.910878155,-84.5300706583,300.18,0.019881,0.0,0.0,0.0,0.021316,0.0,0.0,0.0,0.088209,2
1595530183465648873,12866,1595530183450000048,gpsRover,1,3,33.910878135,-84.5300706367,300.175,0.019881,0.0,0.0,0.0,0.021316,0.0,0.0,0.0,0.088209,2
1595530183515667925,12867,1595530183500000000,gpsRover,1,3,33.9108781283,-84.5300706117,300.175,0.019881,0.0,0.0,0.0,0.021316,0.0,0.0,0.0,0.088209,2
1595530183565601388,12868,1595530183549999952,gpsRover,1,3,33.9108781283,-84.5300705917,300.172,0.019881,0.0,0.0,0.0,0.021316,0.0,0.0,0.0,0.088209,2
1595530183615614657,12869,1595530183599999905,gpsRover,1,3,33.910878125,-84.530070605,300.179,0.019881,0.0,0.0,0.0,0.021316,0.0,0.0,0.0,0.088209,2
1595530183665534371,12870,1595530183650000095,gpsRover,1,3,33.91087812,-84.5300706083,300.176,0.019881,0.0,0.0,0.0,0.021316,0.0,0.0,0.0,0.088209,2
1595530183715462991,12871,1595530183700000048,gpsRover,1,3,33.9108781267,-84.530070605,300.172,0.019881,0.0,0.0,0.0,0.021316,0.0,0.0,0.0,0.088209,2
1595530183765433645,12872,1595530183750000000,gpsRover,1,3,33.9108781317,-84.5300706167,300.175,0.019881,0.0,0.0,0.0,0.021316,0.0,0.0,0.0,0.088209,2
1595530183815480566,12873,1595530183799999952,gpsRover,1,3,33.9108781267,-84.5300706217,300.173,0.019881,0.0,0.0,0.0,0.021316,0.0,0.0,0.0,0.088209,2
1595530183865425922,12874,1595530183849999905,gpsRover,1,3,33.9108781267,-84.53007064,300.171,0.019881,0.0,0.0,0.0,0.021316,0.0,0.0,0.0,0.088209,2
1595530183915332391,12875,1595530183900000095,gpsRover,1,3,33.9108781233,-84.5300706483,300.171,0.019881,0.0,0.0,0.0,0.021316,0.0,0.0,0.0,0.088209,2
1595530183966290652,12876,1595530183950000048,gpsRover,1,3,33.9108781267,-84.53007065,300.173,0.019881,0.0,0.0,0.0,0.021316,0.0,0.0,0.0,0.088209,2
1595530184016274467,12877,1595530184000000000,gpsRover,1,3,33.9108781367,-84.530070645,300.172,0.019881,0.0,0.0,0.0,0.021316,0.0,0.0,0.0,0.088209,2
1595530184082241401,12878,1595530184049999952,gpsRover,1,3,33.9108781367,-84.5300706533,300.17,0.019881,0.0,0.0,0.0,0.021316,0.0,0.0,0.0,0.088209,2
1595530184115153199,12879,1595530184099999905,gpsRover,1,3,33.9108781367,-84.5300706617,300.168,0.019881,0.0,0.0,0.0,0.021316,0.0,0.0,0.0,0.088209,2
1595530184165167365,12880,1595530184150000095,gpsRover,1,3,33.91087813,-84.53007066,300.171,0.019881,0.0,0.0,0.0,0.021316,0.0,0.0,0.0,0.088209,2
1595530184216176869,12881,1595530184200000048,gpsRover,1,3,33.910878125,-84.53007066,300.17,0.019881,0.0,0.0,0.0,0.021316,0.0,0.0,0.0,0.088209,2
1595530184265077673,12882,1595530184250000000,gpsRover,1,3,33.9108781167,-84.5300706483,300.168,0.019881,0.0,0.0,0.0,0.021316,0.0,0.0,0.0,0.088209,2
1595530184316169776,12883,1595530184299999952,gpsRover,1,3,33.91087811,-84.530070655,300.171,0.019881,0.0,0.0,0.0,0.021316,0.0,0.0,0.0,0.088209,2
1595530184365990969,12884,1595530184349999905,gpsRover,1,3,33.9108781033,-84.5300706567,300.168,0.019881,0.0,0.0,0.0,0.021316,0.0,0.0,0.0,0.088209,2
1595530184416078525,12885,1595530184400000095,gpsRover,1,3,33.910878095,-84.5300706533,300.17,0.019881,0.0,0.0,0.0,0.021316,0.0,0.0,0.0,0.088209,2
1595530184465898010,12886,1595530184450000048,gpsRover,1,3,33.9108781,-84.530070655,300.168,0.019881,0.0,0.0,0.0,0.021316,0.0,0.0,0.0,0.088209,2
1595530184514908419,12887,1595530184500000000,gpsRover,1,3,33.9108780983,-84.53007065,300.165,0.019881,0.0,0.0,0.0,0.021316,0.0,0.0,0.0,0.088209,2
1595530184565857574,12888,1595530184549999952,gpsRover,1,3,33.9108780917,-84.5300706583,300.164,0.019881,0.0,0.0,0.0,0.021316,0.0,0.0,0.0,0.088209,2
1595530184615964245,12889,1595530184599999905,gpsRover,1,3,33.91087809,-84.530070665,300.165,0.019881,0.0,0.0,0.0,0.021316,0.0,0.0,0.0,0.088209,2
1595530184665844099,12890,1595530184650000095,gpsRover,1,3,33.9108781,-84.5300706717,300.163,0.019881,0.0,0.0,0.0,0.021316,0.0,0.0,0.0,0.088209,2
1595530184715756782,12891,1595530184700000048,gpsRover,1,3,33.9108781,-84.5300706783,300.165,0.019881,0.0,0.0,0.0,0.021316,0.0,0.0,0.0,0.088209,2
1595530184765706343,12892,1595530184750000000,gpsRover,1,3,33.9108780933,-84.5300706883,300.164,0.019881,0.0,0.0,0.0,0.021316,0.0,0.0,0.0,0.088209,2
1595530184815649022,12893,1595530184799999952,gpsRover,1,3,33.910878105,-84.5300706933,300.162,0.019881,0.0,0.0,0.0,0.021316,0.0,0.0,0.0,0.088209,2
1595530184865604865,12894,1595530184849999905,gpsRover,1,3,33.9108781067,-84.5300706783,300.161,0.019881,0.0,0.0,0.0,0.021316,0.0,0.0,0.0,0.088209,2
1595530184915580330,12895,1595530184900000095,gpsRover,1,3,33.9108780917,-84.53007068,300.163,0.019881,0.0,0.0,0.0,0.021316,0.0,0.0,0.0,0.088209,2
1595530184965625916,12896,1595530184950000048,gpsRover,1,3,33.9108780883,-84.5300706817,300.164,0.019881,0.0,0.0,0.0,0.021316,0.0,0.0,0.0,0.088209,2
1595530185016560085,12897,1595530185000000000,gpsRover,1,3,33.9108780933,-84.530070685,300.16,0.019881,0.0,0.0,0.0,0.021316,0.0,0.0,0.0,0.088209,2
1595530185082552175,12898,1595530185049999952,gpsRover,1,3,33.9108780917,-84.5300707017,300.164,0.019881,0.0,0.0,0.0,0.021316,0.0,0.0,0.0,0.088209,2
1595530185115501109,12899,1595530185099999905,gpsRover,1,3,33.9108780733,-84.53007072,300.163,0.019881,0.0,0.0,0.0,0.021316,0.0,0.0,0.0,0.088209,2
1595530185165488772,12900,1595530185150000095,gpsRover,1,3,33.9108780767,-84.5300707183,300.162,0.019881,0.0,0.0,0.0,0.021316,0.0,0.0,0.0,0.088209,2
1595530185215372237,12901,1595530185200000048,gpsRover,1,3,33.9108780817,-84.530070705,300.161,0.019881,0.0,0.0,0.0,0.021316,0.0,0.0,0.0,0.088209,2
1595530185266306522,12902,1595530185250000000,gpsRover,1,3,33.9108780733,-84.5300707117,300.163,0.019881,0.0,0.0,0.0,0.021316,0.0,0.0,0.0,0.088209,2
1595530185315315840,12903,1595530185299999952,gpsRover,1,3,33.9108780783,-84.5300707167,300.159,0.019881,0.0,0.0,0.0,0.021316,0.0,0.0,0.0,0.088209,2
1595530185366263588,12904,1595530185349999905,gpsRover,1,3,33.9108780617,-84.5300707117,300.16,0.019881,0.0,0.0,0.0,0.021316,0.0,0.0,0.0,0.088209,2
1595530185415199356,12905,1595530185400000095,gpsRover,1,3,33.9108780583,-84.5300707133,300.161,0.019881,0.0,0.0,0.0,0.021316,0.0,0.0,0.0,0.088209,2
1595530185465159502,12906,1595530185450000048,gpsRover,1,3,33.910878065,-84.53007071,300.16,0.019881,0.0,0.0,0.0,0.021316,0.0,0.0,0.0,0.088209,2
1595530185516137173,12907,1595530185500000000,gpsRover,1,3,33.91087806,-84.53007071,300.161,0.019881,0.0,0.0,0.0,0.021316,0.0,0.0,0.0,0.088209,2
1595530185565077067,12908,1595530185549999952,gpsRover,1,3,33.9108780567,-84.530070715,300.161,0.019881,0.0,0.0,0.0,0.021316,0.0,0.0,0.0,0.088209,2
1595530185616097494,12909,1595530185599999905,gpsRover,1,3,33.9108780567,-84.5300707183,300.16,0.019881,0.0,0.0,0.0,0.021316,0.0,0.0,0.0,0.088209,2
1595530185665988929,12910,1595530185650000095,gpsRover,1,3,33.910878065,-84.5300707233,300.156,0.019881,0.0,0.0,0.0,0.021316,0.0,0.0,0.0,0.088209,2
1595530185715014600,12911,1595530185700000048,gpsRover,1,3,33.91087806,-84.5300707217,300.157,0.019881,0.0,0.0,0.0,0.021316,0.0,0.0,0.0,0.088209,2
1595530185766001178,12912,1595530185750000000,gpsRover,1,3,33.9108780683,-84.5300707167,300.159,0.019881,0.0,0.0,0.0,0.021316,0.0,0.0,0.0,0.088209,2
1595530185815982951,12913,1595530185799999952,gpsRover,1,3,33.9108780633,-84.5300707067,300.158,0.019881,0.0,0.0,0.0,0.021316,0.0,0.0,0.0,0.088209,2
1595530185865798857,12914,1595530185849999905,gpsRover,1,3,33.910878045,-84.5300707133,300.156,0.019881,0.0,0.0,0.0,0.021316,0.0,0.0,0.0,0.088209,2
1595530185915784893,12915,1595530185900000095,gpsRover,1,3,33.91087806,-84.5300707233,300.155,0.019881,0.0,0.0,0.0,0.021316,0.0,0.0,0.0,0.088209,2
1595530185965797972,12916,1595530185950000048,gpsRover,1,3,33.91087807,-84.5300707333,300.156,0.019881,0.0,0.0,0.0,0.021316,0.0,0.0,0.0,0.088209,2
1595530186016750595,12917,1595530186000000000,gpsRover,1,3,33.9108780733,-84.5300707317,300.152,0.019881,0.0,0.0,0.0,0.021316,0.0,0.0,0.0,0.088209,2
1595530186082707102,12918,1595530186049999952,gpsRover,1,3,33.9108780667,-84.53007073,300.156,0.019881,0.0,0.0,0.0,0.021316,0.0,0.0,0.0,0.088209,2
1595530186115701101,12919,1595530186099999905,gpsRover,1,3,33.9108780567,-84.53007075,300.156,0.019881,0.0,0.0,0.0,0.021316,0.0,0.0,0.0,0.088209,2
1595530186165604497,12920,1595530186150000095,gpsRover,1,3,33.910878055,-84.5300707533,300.153,0.019881,0.0,0.0,0.0,0.021316,0.0,0.0,0.0,0.088209,2
1595530186215533259,12921,1595530186200000048,gpsRover,1,3,33.9108780517,-84.5300707483,300.155,0.019881,0.0,0.0,0.0,0.021316,0.0,0.0,0.0,0.088209,2
1595530186266047950,12922,1595530186250000000,gpsRover,1,3,33.9108780517,-84.53007073,300.157,0.019881,0.0,0.0,0.0,0.021316,0.0,0.0,0.0,0.088209,2
1595530186315536342,12923,1595530186299999952,gpsRover,1,3,33.9108780483,-84.5300707267,300.154,0.019881,0.0,0.0,0.0,0.021316,0.0,0.0,0.0,0.088209,2
1595530186365455761,12924,1595530186349999905,gpsRover,1,3,33.910878035,-84.530070725,300.156,0.019881,0.0,0.0,0.0,0.021316,0.0,0.0,0.0,0.088209,2
1595530186415471055,12925,1595530186400000095,gpsRover,1,3,33.9108780283,-84.530070725,300.155,0.019881,0.0,0.0,0.0,0.021316,0.0,0.0,0.0,0.088209,2
1595530186465580976,12926,1595530186450000048,gpsRover,1,3,33.9108780267,-84.530070725,300.154,0.019881,0.0,0.0,0.0,0.021316,0.0,0.0,0.0,0.088209,2
1595530186515281715,12927,1595530186500000000,gpsRover,1,3,33.9108780267,-84.5300707267,300.155,0.019881,0.0,0.0,0.0,0.021316,0.0,0.0,0.0,0.088209,2
1595530186566296639,12928,1595530186549999952,gpsRover,1,3,33.9108780217,-84.5300707333,300.154,0.019881,0.0,0.0,0.0,0.021316,0.0,0.0,0.0,0.088209,2
1595530186615313008,12929,1595530186599999905,gpsRover,1,3,33.9108780133,-84.5300707183,300.152,0.019881,0.0,0.0,0.0,0.021316,0.0,0.0,0.0,0.088209,2
1595530186665237320,12930,1595530186650000095,gpsRover,1,3,33.9108780133,-84.5300707067,300.154,0.019881,0.0,0.0,0.0,0.021316,0.0,0.0,0.0,0.088209,2
1595530186716249144,12931,1595530186700000048,gpsRover,1,3,33.9108780117,-84.530070705,300.154,0.019881,0.0,0.0,0.0,0.021316,0.0,0.0,0.0,0.088209,2
1595530186765075795,12932,1595530186750000000,gpsRover,1,3,33.91087801,-84.5300707117,300.155,0.019881,0.0,0.0,0.0,0.021316,0.0,0.0,0.0,0.088209,2
1595530186816054751,12933,1595530186799999952,gpsRover,1,3,33.9108780133,-84.53007071,300.152,0.019881,0.0,0.0,0.0,0.021316,0.0,0.0,0.0,0.088209,2
1595530186865057164,12934,1595530186849999905,gpsRover,1,3,33.91087801,-84.53007071,300.152,0.019881,0.0,0.0,0.0,0.021316,0.0,0.0,0.0,0.088209,2
1595530186916066252,12935,1595530186900000095,gpsRover,1,3,33.910878005,-84.5300707083,300.151,0.019881,0.0,0.0,0.0,0.021316,0.0,0.0,0.0,0.088209,2
1595530186965949809,12936,1595530186950000048,gpsRover,1,3,33.9108780083,-84.5300707167,300.149,0.019881,0.0,0.0,0.0,0.021316,0.0,0.0,0.0,0.088209,2
1595530187015876354,12937,1595530187000000000,gpsRover,1,3,33.9108780017,-84.530070715,300.152,0.019881,0.0,0.0,0.0,0.021316,0.0,0.0,0.0,0.088209,2
1595530187081908259,12938,1595530187049999952,gpsRover,1,3,33.910878,-84.5300707117,300.15,0.019881,0.0,0.0,0.0,0.021316,0.0,0.0,0.0,0.088209,2
1595530187115829741,12939,1595530187099999905,gpsRover,1,3,33.9108780017,-84.5300707233,300.151,0.019881,0.0,0.0,0.0,0.021316,0.0,0.0,0.0,0.088209,2
1595530187165831153,12940,1595530187150000095,gpsRover,1,3,33.9108779983,-84.5300707183,300.151,0.019881,0.0,0.0,0.0,0.021316,0.0,0.0,0.0,0.088209,2
1595530187215674055,12941,1595530187200000048,gpsRover,1,3,33.910878,-84.5300707033,300.151,0.019881,0.0,0.0,0.0,0.021316,0.0,0.0,0.0,0.088209,2
1595530187265652095,12942,1595530187250000000,gpsRover,1,3,33.910877995,-84.5300707,300.149,0.019881,0.0,0.0,0.0,0.021316,0.0,0.0,0.0,0.088209,2
1595530187315715974,12943,1595530187299999952,gpsRover,1,3,33.91087798,-84.5300707017,300.15,0.019881,0.0,0.0,0.0,0.021316,0.0,0.0,0.0,0.088209,2
1595530187365601352,12944,1595530187349999905,gpsRover,1,3,33.9108779733,-84.5300706983,300.148,0.019881,0.0,0.0,0.0,0.021316,0.0,0.0,0.0,0.088209,2
1595530187415527581,12945,1595530187400000095,gpsRover,1,3,33.910877975,-84.5300706917,300.149,0.019881,0.0,0.0,0.0,0.021316,0.0,0.0,0.0,0.088209,2
1595530187465432233,12946,1595530187450000048,gpsRover,1,3,33.9108779833,-84.5300706883,300.147,0.019881,0.0,0.0,0.0,0.021316,0.0,0.0,0.0,0.088209,2
1595530187515453074,12947,1595530187500000000,gpsRover,1,3,33.910877985,-84.5300706933,300.149,0.019881,0.0,0.0,0.0,0.021316,0.0,0.0,0.0,0.088209,2
1595530187565431145,12948,1595530187549999952,gpsRover,1,3,33.9108779783,-84.530070695,300.148,0.019881,0.0,0.0,0.0,0.021316,0.0,0.0,0.0,0.088209,2
1595530187615451883,12949,1595530187599999905,gpsRover,1,3,33.910877975,-84.5300706933,300.146,0.019881,0.0,0.0,0.0,0.021316,0.0,0.0,0.0,0.088209,2
1595530187665311467,12950,1595530187650000095,gpsRover,1,3,33.9108779717,-84.5300706967,300.149,0.019881,0.0,0.0,0.0,0.021316,0.0,0.0,0.0,0.088209,2
1595530187715242555,12951,1595530187700000048,gpsRover,1,3,33.91087797,-84.5300707017,300.144,0.019881,0.0,0.0,0.0,0.021316,0.0,0.0,0.0,0.088209,2
1595530187766163130,12952,1595530187750000000,gpsRover,1,3,33.9108779617,-84.530070695,300.144,0.019881,0.0,0.0,0.0,0.021316,0.0,0.0,0.0,0.088209,2
1595530187815202403,12953,1595530187799999952,gpsRover,1,3,33.91087796,-84.530070695,300.146,0.019881,0.0,0.0,0.0,0.021316,0.0,0.0,0.0,0.088209,2
1595530187866175622,12954,1595530187849999905,gpsRover,1,3,33.9108779583,-84.530070695,300.143,0.019881,0.0,0.0,0.0,0.021316,0.0,0.0,0.0,0.088209,2
1595530187916153606,12955,1595530187900000095,gpsRover,1,3,33.9108779467,-84.53007069,300.143,0.019881,0.0,0.0,0.0,0.021316,0.0,0.0,0.0,0.088209,2
1595530187965071373,12956,1595530187950000048,gpsRover,1,3,33.910877945,-84.53007069,300.144,0.019881,0.0,0.0,0.0,0.021316,0.0,0.0,0.0,0.088209,2
1595530188015969143,12957,1595530188000000000,gpsRover,1,3,33.910877945,-84.5300706733,300.142,0.019881,0.0,0.0,0.0,0.021316,0.0,0.0,0.0,0.088209,2
1595530188081915134,12958,1595530188049999952,gpsRover,1,3,33.910877935,-84.5300706767,300.143,0.019881,0.0,0.0,0.0,0.021316,0.0,0.0,0.0,0.088209,2
1595530188115989400,12959,1595530188099999905,gpsRover,1,3,33.9108779333,-84.5300706817,300.142,0.019881,0.0,0.0,0.0,0.021316,0.0,0.0,0.0,0.088209,2
1595530188165840531,12960,1595530188150000095,gpsRover,1,3,33.9108779333,-84.5300706817,300.14,0.019881,0.0,0.0,0.0,0.021316,0.0,0.0,0.0,0.088209,2
1595530188215888045,12961,1595530188200000048,gpsRover,1,3,33.9108779317,-84.5300706733,300.138,0.019881,0.0,0.0,0.0,0.021316,0.0,0.0,0.0,0.088209,2
1595530188265854736,12962,1595530188250000000,gpsRover,1,3,33.9108779417,-84.5300706767,300.139,0.019881,0.0,0.0,0.0,0.021316,0.0,0.0,0.0,0.088209,2
1595530188315767773,12963,1595530188299999952,gpsRover,1,3,33.9108779367,-84.5300706867,300.144,0.019881,0.0,0.0,0.0,0.021316,0.0,0.0,0.0,0.088209,2
1595530188365666955,12964,1595530188349999905,gpsRover,1,3,33.9108779317,-84.530070685,300.139,0.019881,0.0,0.0,0.0,0.021316,0.0,0.0,0.0,0.088209,2
1595530188415676222,12965,1595530188400000095,gpsRover,1,3,33.910877925,-84.5300706833,300.14,0.019881,0.0,0.0,0.0,0.021316,0.0,0.0,0.0,0.088209,2
1595530188465859601,12966,1595530188450000048,gpsRover,1,3,33.91087792,-84.530070695,300.139,0.019881,0.0,0.0,0.0,0.021316,0.0,0.0,0.0,0.088209,2
1595530188515672185,12967,1595530188500000000,gpsRover,1,3,33.9108779183,-84.530070695,300.142,0.019881,0.0,0.0,0.0,0.021316,0.0,0.0,0.0,0.088209,2
1595530188565505225,12968,1595530188549999952,gpsRover,1,3,33.9108779167,-84.530070685,300.138,0.019881,0.0,0.0,0.0,0.021316,0.0,0.0,0.0,0.088209,2
1595530188615448388,12969,1595530188599999905,gpsRover,1,3,33.910877915,-84.53007068,300.14,0.019881,0.0,0.0,0.0,0.021316,0.0,0.0,0.0,0.088209,2
1595530188665415893,12970,1595530188650000095,gpsRover,1,3,33.9108779217,-84.5300706783,300.138,0.019881,0.0,0.0,0.0,0.021316,0.0,0.0,0.0,0.088209,2
1595530188715420400,12971,1595530188700000048,gpsRover,1,3,33.9108779183,-84.530070665,300.137,0.019881,0.0,0.0,0.0,0.021316,0.0,0.0,0.0,0.088209,2
1595530188765386571,12972,1595530188750000000,gpsRover,1,3,33.9108779083,-84.5300706667,300.14,0.019881,0.0,0.0,0.0,0.021316,0.0,0.0,0.0,0.088209,2
1595530188815452408,12973,1595530188799999952,gpsRover,1,3,33.9108779033,-84.5300706817,300.141,0.019881,0.0,0.0,0.0,0.021316,0.0,0.0,0.0,0.088209,2
1595530188865330400,12974,1595530188849999905,gpsRover,1,3,33.9108778917,-84.53007067,300.14,0.019881,0.0,0.0,0.0,0.021316,0.0,0.0,0.0,0.088209,2
1595530188915421178,12975,1595530188900000095,gpsRover,1,3,33.910877895,-84.5300706633,300.137,0.019881,0.0,0.0,0.0,0.021316,0.0,0.0,0.0,0.088209,2
1595530188965328969,12976,1595530188950000048,gpsRover,1,3,33.9108779017,-84.530070675,300.137,0.019881,0.0,0.0,0.0,0.021316,0.0,0.0,0.0,0.088209,2
1595530189016216441,12977,1595530189000000000,gpsRover,1,3,33.9108779067,-84.5300706783,300.135,0.019881,0.0,0.0,0.0,0.021316,0.0,0.0,0.0,0.088209,2
1595530189082306059,12978,1595530189049999952,gpsRover,1,3,33.9108779117,-84.53007067,300.137,0.019881,0.0,0.0,0.0,0.021316,0.0,0.0,0.0,0.088209,2
1595530189115137641,12979,1595530189099999905,gpsRover,1,3,33.9108779133,-84.5300706717,300.134,0.019881,0.0,0.0,0.0,0.021316,0.0,0.0,0.0,0.088209,2
1595530189166167135,12980,1595530189150000095,gpsRover,1,3,33.9108779067,-84.5300706783,300.135,0.019881,0.0,0.0,0.0,0.021316,0.0,0.0,0.0,0.088209,2
1595530189216107170,12981,1595530189200000048,gpsRover,1,3,33.9108779117,-84.5300706833,300.134,0.019881,0.0,0.0,0.0,0.021316,0.0,0.0,0.0,0.088209,2
1595530189265059560,12982,1595530189250000000,gpsRover,1,3,33.9108779133,-84.5300706917,300.134,0.019881,0.0,0.0,0.0,0.021316,0.0,0.0,0.0,0.088209,2
1595530189316052436,12983,1595530189299999952,gpsRover,1,3,33.9108779067,-84.5300706733,300.131,0.019881,0.0,0.0,0.0,0.021316,0.0,0.0,0.0,0.088209,2
1595530189365847749,12984,1595530189349999905,gpsRover,1,3,33.910877915,-84.5300706583,300.13,0.019881,0.0,0.0,0.0,0.021316,0.0,0.0,0.0,0.088209,2
1595530189415820158,12985,1595530189400000095,gpsRover,1,3,33.9108779,-84.530070665,300.136,0.019881,0.0,0.0,0.0,0.021316,0.0,0.0,0.0,0.088209,2
1595530189465815838,12986,1595530189450000048,gpsRover,1,3,33.910877895,-84.53007067,300.13,0.019881,0.0,0.0,0.0,0.021316,0.0,0.0,0.0,0.088209,2
1595530189515687752,12987,1595530189500000000,gpsRover,1,3,33.9108778983,-84.5300706667,300.131,0.019881,0.0,0.0,0.0,0.021316,0.0,0.0,0.0,0.088209,2
1595530189565712909,12988,1595530189549999952,gpsRover,1,3,33.9108778933,-84.5300706717,300.132,0.019881,0.0,0.0,0.0,0.021316,0.0,0.0,0.0,0.088209,2
1595530189615660452,12989,1595530189599999905,gpsRover,1,3,33.9108778917,-84.5300706767,300.13,0.019881,0.0,0.0,0.0,0.021316,0.0,0.0,0.0,0.088209,2
1595530189665562346,12990,1595530189650000095,gpsRover,1,3,33.9108778917,-84.530070675,300.131,0.019881,0.0,0.0,0.0,0.021316,0.0,0.0,0.0,0.088209,2
1595530189715622593,12991,1595530189700000048,gpsRover,1,3,33.9108778933,-84.53007068,300.13,0.019881,0.0,0.0,0.0,0.021316,0.0,0.0,0.0,0.088209,2
1595530189765476911,12992,1595530189750000000,gpsRover,1,3,33.9108778933,-84.53007068,300.128,0.019881,0.0,0.0,0.0,0.021316,0.0,0.0,0.0,0.088209,2
1595530189815580982,12993,1595530189799999952,gpsRover,1,3,33.9108778983,-84.5300706717,300.13,0.019881,0.0,0.0,0.0,0.021316,0.0,0.0,0.0,0.088209,2
1595530189866404306,12994,1595530189849999905,gpsRover,1,3,33.9108778817,-84.5300706617,300.131,0.019881,0.0,0.0,0.0,0.021316,0.0,0.0,0.0,0.088209,2
1595530189915488775,12995,1595530189900000095,gpsRover,1,3,33.9108778767,-84.5300706633,300.13,0.019881,0.0,0.0,0.0,0.021316,0.0,0.0,0.0,0.088209,2
1595530189965465903,12996,1595530189950000048,gpsRover,1,3,33.91087789,-84.530070665,300.13,0.019881,0.0,0.0,0.0,0.021316,0.0,0.0,0.0,0.088209,2
1595530190016361256,12997,1595530190000000000,gpsRover,1,3,33.9108778783,-84.5300706633,300.128,0.019881,0.0,0.0,0.0,0.021316,0.0,0.0,0.0,0.088209,2
1595530190082241085,12998,1595530190049999952,gpsRover,1,3,33.91087788,-84.530070655,300.129,0.019881,0.0,0.0,0.0,0.021316,0.0,0.0,0.0,0.088209,2
1595530190116186908,12999,1595530190099999905,gpsRover,1,3,33.91087789,-84.5300706567,300.126,0.019881,0.0,0.0,0.0,0.021316,0.0,0.0,0.0,0.088209,2
1595530190165196504,13000,1595530190150000095,gpsRover,1,3,33.91087788,-84.5300706467,300.129,0.019881,0.0,0.0,0.0,0.021316,0.0,0.0,0.0,0.088209,2
1595530190215145623,13001,1595530190200000048,gpsRover,1,3,33.91087788,-84.5300706383,300.126,0.019881,0.0,0.0,0.0,0.021316,0.0,0.0,0.0,0.088209,2
